[{"id":9143,"lat":53.58449077,"lon":-1.51108149,"name":"Mapplewell Health Centre","trust":"South_West_Yorkshire_Partnership_NHS_Foundation_Trust","clean_trust":"South West Yorkshire Partnership NHS Foundation Trust","trust_id":220,"eu_staff_perc":0.5,"frontline_perc":0.7,"doctors_perc":3.1,"nurses_perc":0.4,"midwives_perc":0},{"id":9151,"lat":53.69335729,"lon":-1.30855327,"name":"Pontefract Health Centre","trust":"South_West_Yorkshire_Partnership_NHS_Foundation_Trust","clean_trust":"South West Yorkshire Partnership NHS Foundation Trust","trust_id":220,"eu_staff_perc":0.5,"frontline_perc":0.7,"doctors_perc":3.1,"nurses_perc":0.4,"midwives_perc":0},{"id":9095,"lat":53.69854492,"lon":-1.49203959,"name":"Fieldhead Hospital","trust":"South_West_Yorkshire_Partnership_NHS_Foundation_Trust","clean_trust":"South West Yorkshire Partnership NHS Foundation Trust","trust_id":220,"eu_staff_perc":0.5,"frontline_perc":0.7,"doctors_perc":3.1,"nurses_perc":0.4,"midwives_perc":0},{"id":9159,"lat":53.60000501,"lon":-1.45101804,"name":"Royston Group Practice","trust":"South_West_Yorkshire_Partnership_NHS_Foundation_Trust","clean_trust":"South West Yorkshire Partnership NHS Foundation Trust","trust_id":220,"eu_staff_perc":0.5,"frontline_perc":0.7,"doctors_perc":3.1,"nurses_perc":0.4,"midwives_perc":0},{"id":9103,"lat":53.71092258,"lon":-1.62682223,"name":"Beckside Court","trust":"South_West_Yorkshire_Partnership_NHS_Foundation_Trust","clean_trust":"South West Yorkshire Partnership NHS Foundation Trust","trust_id":220,"eu_staff_perc":0.5,"frontline_perc":0.7,"doctors_perc":3.1,"nurses_perc":0.4,"midwives_perc":0},{"id":9167,"lat":53.52321366,"lon":-1.41250704,"name":"Summer Lane Centre","trust":"South_West_Yorkshire_Partnership_NHS_Foundation_Trust","clean_trust":"South West Yorkshire Partnership NHS Foundation Trust","trust_id":220,"eu_staff_perc":0.5,"frontline_perc":0.7,"doctors_perc":3.1,"nurses_perc":0.4,"midwives_perc":0},{"id":9111,"lat":53.54986065,"lon":-1.47756653,"name":"Burleigh Court","trust":"South_West_Yorkshire_Partnership_NHS_Foundation_Trust","clean_trust":"South West Yorkshire Partnership NHS Foundation Trust","trust_id":220,"eu_staff_perc":0.5,"frontline_perc":0.7,"doctors_perc":3.1,"nurses_perc":0.4,"midwives_perc":0},{"id":9175,"lat":53.68329181,"lon":-1.50928745,"name":"Urban House","trust":"South_West_Yorkshire_Partnership_NHS_Foundation_Trust","clean_trust":"South West Yorkshire Partnership NHS Foundation Trust","trust_id":220,"eu_staff_perc":0.5,"frontline_perc":0.7,"doctors_perc":3.1,"nurses_perc":0.4,"midwives_perc":0},{"id":9119,"lat":53.58604154,"lon":-1.53023296,"name":"Darton Health Centre","trust":"South_West_Yorkshire_Partnership_NHS_Foundation_Trust","clean_trust":"South West Yorkshire Partnership NHS Foundation Trust","trust_id":220,"eu_staff_perc":0.5,"frontline_perc":0.7,"doctors_perc":3.1,"nurses_perc":0.4,"midwives_perc":0},{"id":9127,"lat":53.64024468,"lon":-1.78700097,"name":"Folly Hall Mills","trust":"South_West_Yorkshire_Partnership_NHS_Foundation_Trust","clean_trust":"South West Yorkshire Partnership NHS Foundation Trust","trust_id":220,"eu_staff_perc":0.5,"frontline_perc":0.7,"doctors_perc":3.1,"nurses_perc":0.4,"midwives_perc":0},{"id":9135,"lat":53.56824733,"lon":-1.53323858,"name":"Huddersfield Road Surgery - Barugh Green","trust":"South_West_Yorkshire_Partnership_NHS_Foundation_Trust","clean_trust":"South West Yorkshire Partnership NHS Foundation Trust","trust_id":220,"eu_staff_perc":0.5,"frontline_perc":0.7,"doctors_perc":3.1,"nurses_perc":0.4,"midwives_perc":0},{"id":9144,"lat":53.57974005,"lon":-1.41575663,"name":"Mental health access team, Barnsley","trust":"South_West_Yorkshire_Partnership_NHS_Foundation_Trust","clean_trust":"South West Yorkshire Partnership NHS Foundation Trust","trust_id":220,"eu_staff_perc":0.5,"frontline_perc":0.7,"doctors_perc":3.1,"nurses_perc":0.4,"midwives_perc":0},{"id":9152,"lat":53.70170376,"lon":-1.65035195,"name":"Priestley Unit","trust":"South_West_Yorkshire_Partnership_NHS_Foundation_Trust","clean_trust":"South West Yorkshire Partnership NHS Foundation Trust","trust_id":220,"eu_staff_perc":0.5,"frontline_perc":0.7,"doctors_perc":3.1,"nurses_perc":0.4,"midwives_perc":0},{"id":9096,"lat":53.54695386,"lon":-1.45461721,"name":"Kendray Hospital","trust":"South_West_Yorkshire_Partnership_NHS_Foundation_Trust","clean_trust":"South West Yorkshire Partnership NHS Foundation Trust","trust_id":220,"eu_staff_perc":0.5,"frontline_perc":0.7,"doctors_perc":3.1,"nurses_perc":0.4,"midwives_perc":0},{"id":9160,"lat":53.71759579,"lon":-1.87022304,"name":"Savile Close","trust":"South_West_Yorkshire_Partnership_NHS_Foundation_Trust","clean_trust":"South West Yorkshire Partnership NHS Foundation Trust","trust_id":220,"eu_staff_perc":0.5,"frontline_perc":0.7,"doctors_perc":3.1,"nurses_perc":0.4,"midwives_perc":0},{"id":9104,"lat":53.6867182,"lon":-1.50537131,"name":"Beech House","trust":"South_West_Yorkshire_Partnership_NHS_Foundation_Trust","clean_trust":"South West Yorkshire Partnership NHS Foundation Trust","trust_id":220,"eu_staff_perc":0.5,"frontline_perc":0.7,"doctors_perc":3.1,"nurses_perc":0.4,"midwives_perc":0},{"id":9168,"lat":53.57817028,"lon":-1.41641259,"name":"The Cudworth Centre","trust":"South_West_Yorkshire_Partnership_NHS_Foundation_Trust","clean_trust":"South West Yorkshire Partnership NHS Foundation Trust","trust_id":220,"eu_staff_perc":0.5,"frontline_perc":0.7,"doctors_perc":3.1,"nurses_perc":0.4,"midwives_perc":0},{"id":9112,"lat":53.70482122,"lon":-1.85750861,"name":"Calderdale IAPT","trust":"South_West_Yorkshire_Partnership_NHS_Foundation_Trust","clean_trust":"South West Yorkshire Partnership NHS Foundation Trust","trust_id":220,"eu_staff_perc":0.5,"frontline_perc":0.7,"doctors_perc":3.1,"nurses_perc":0.4,"midwives_perc":0},{"id":9176,"lat":53.55670407,"lon":-1.49082665,"name":"Victoria Medical Centre","trust":"South_West_Yorkshire_Partnership_NHS_Foundation_Trust","clean_trust":"South West Yorkshire Partnership NHS Foundation Trust","trust_id":220,"eu_staff_perc":0.5,"frontline_perc":0.7,"doctors_perc":3.1,"nurses_perc":0.4,"midwives_perc":0},{"id":9120,"lat":53.57575724,"lon":-1.4137274,"name":"Dorothy Hyman Sports Centre","trust":"South_West_Yorkshire_Partnership_NHS_Foundation_Trust","clean_trust":"South West Yorkshire Partnership NHS Foundation Trust","trust_id":220,"eu_staff_perc":0.5,"frontline_perc":0.7,"doctors_perc":3.1,"nurses_perc":0.4,"midwives_perc":0},{"id":9128,"lat":53.70356349,"lon":-1.64836696,"name":"Fox View Hub","trust":"South_West_Yorkshire_Partnership_NHS_Foundation_Trust","clean_trust":"South West Yorkshire Partnership NHS Foundation Trust","trust_id":220,"eu_staff_perc":0.5,"frontline_perc":0.7,"doctors_perc":3.1,"nurses_perc":0.4,"midwives_perc":0},{"id":9136,"lat":53.5462742,"lon":-1.4975186,"name":"Keresforth Centre","trust":"South_West_Yorkshire_Partnership_NHS_Foundation_Trust","clean_trust":"South West Yorkshire Partnership NHS Foundation Trust","trust_id":220,"eu_staff_perc":0.5,"frontline_perc":0.7,"doctors_perc":3.1,"nurses_perc":0.4,"midwives_perc":0},{"id":9137,"lat":53.72483603,"lon":-1.86382151,"name":"Laura Mitchell Health and Wellbeing Centre","trust":"South_West_Yorkshire_Partnership_NHS_Foundation_Trust","clean_trust":"South West Yorkshire Partnership NHS Foundation Trust","trust_id":220,"eu_staff_perc":0.5,"frontline_perc":0.7,"doctors_perc":3.1,"nurses_perc":0.4,"midwives_perc":0},{"id":9145,"lat":53.5666081,"lon":-1.45188828,"name":"Monk Bretton Health Centre","trust":"South_West_Yorkshire_Partnership_NHS_Foundation_Trust","clean_trust":"South West Yorkshire Partnership NHS Foundation Trust","trust_id":220,"eu_staff_perc":0.5,"frontline_perc":0.7,"doctors_perc":3.1,"nurses_perc":0.4,"midwives_perc":0},{"id":9153,"lat":53.69481138,"lon":-1.64524765,"name":"Ravensleigh Resource Unit","trust":"South_West_Yorkshire_Partnership_NHS_Foundation_Trust","clean_trust":"South West Yorkshire Partnership NHS Foundation Trust","trust_id":220,"eu_staff_perc":0.5,"frontline_perc":0.7,"doctors_perc":3.1,"nurses_perc":0.4,"midwives_perc":0},{"id":9097,"lat":53.71958514,"lon":-1.87026354,"name":"Adults Health And Social Care","trust":"South_West_Yorkshire_Partnership_NHS_Foundation_Trust","clean_trust":"South West Yorkshire Partnership NHS Foundation Trust","trust_id":220,"eu_staff_perc":0.5,"frontline_perc":0.7,"doctors_perc":3.1,"nurses_perc":0.4,"midwives_perc":0},{"id":9161,"lat":53.71902211,"lon":-1.36977626,"name":"Savile Park View House","trust":"South_West_Yorkshire_Partnership_NHS_Foundation_Trust","clean_trust":"South West Yorkshire Partnership NHS Foundation Trust","trust_id":220,"eu_staff_perc":0.5,"frontline_perc":0.7,"doctors_perc":3.1,"nurses_perc":0.4,"midwives_perc":0},{"id":9105,"lat":53.74324401,"lon":-1.88116815,"name":"Beechwood Health Centre","trust":"South_West_Yorkshire_Partnership_NHS_Foundation_Trust","clean_trust":"South West Yorkshire Partnership NHS Foundation Trust","trust_id":220,"eu_staff_perc":0.5,"frontline_perc":0.7,"doctors_perc":3.1,"nurses_perc":0.4,"midwives_perc":0},{"id":9169,"lat":53.55782218,"lon":-1.4916586,"name":"The Exchange Recovery College","trust":"South_West_Yorkshire_Partnership_NHS_Foundation_Trust","clean_trust":"South West Yorkshire Partnership NHS Foundation Trust","trust_id":220,"eu_staff_perc":0.5,"frontline_perc":0.7,"doctors_perc":3.1,"nurses_perc":0.4,"midwives_perc":0},{"id":9113,"lat":53.52217725,"lon":-1.39571865,"name":"Chapelfield Medical Centre","trust":"South_West_Yorkshire_Partnership_NHS_Foundation_Trust","clean_trust":"South West Yorkshire Partnership NHS Foundation Trust","trust_id":220,"eu_staff_perc":0.5,"frontline_perc":0.7,"doctors_perc":3.1,"nurses_perc":0.4,"midwives_perc":0},{"id":9177,"lat":53.71005661,"lon":-1.90795598,"name":"Wells House","trust":"South_West_Yorkshire_Partnership_NHS_Foundation_Trust","clean_trust":"South West Yorkshire Partnership NHS Foundation Trust","trust_id":220,"eu_staff_perc":0.5,"frontline_perc":0.7,"doctors_perc":3.1,"nurses_perc":0.4,"midwives_perc":0},{"id":9121,"lat":53.68237467,"lon":-1.50312858,"name":"Drury Lane Health and Wellbeing Centre","trust":"South_West_Yorkshire_Partnership_NHS_Foundation_Trust","clean_trust":"South West Yorkshire Partnership NHS Foundation Trust","trust_id":220,"eu_staff_perc":0.5,"frontline_perc":0.7,"doctors_perc":3.1,"nurses_perc":0.4,"midwives_perc":0},{"id":9129,"lat":53.67997746,"lon":-1.50330044,"name":"Garden Street Centre","trust":"South_West_Yorkshire_Partnership_NHS_Foundation_Trust","clean_trust":"South West Yorkshire Partnership NHS Foundation Trust","trust_id":220,"eu_staff_perc":0.5,"frontline_perc":0.7,"doctors_perc":3.1,"nurses_perc":0.4,"midwives_perc":0},{"id":9138,"lat":53.70471354,"lon":-1.65129614,"name":"Learning Disabilities Resource Centre","trust":"South_West_Yorkshire_Partnership_NHS_Foundation_Trust","clean_trust":"South West Yorkshire Partnership NHS Foundation Trust","trust_id":220,"eu_staff_perc":0.5,"frontline_perc":0.7,"doctors_perc":3.1,"nurses_perc":0.4,"midwives_perc":0},{"id":9146,"lat":53.54307225,"lon":-1.45690049,"name":"Oaks Park Primary Care Centre","trust":"South_West_Yorkshire_Partnership_NHS_Foundation_Trust","clean_trust":"South West Yorkshire Partnership NHS Foundation Trust","trust_id":220,"eu_staff_perc":0.5,"frontline_perc":0.7,"doctors_perc":3.1,"nurses_perc":0.4,"midwives_perc":0},{"id":9154,"lat":53.67709513,"lon":-1.69851353,"name":"Recovery College Kirklees","trust":"South_West_Yorkshire_Partnership_NHS_Foundation_Trust","clean_trust":"South West Yorkshire Partnership NHS Foundation Trust","trust_id":220,"eu_staff_perc":0.5,"frontline_perc":0.7,"doctors_perc":3.1,"nurses_perc":0.4,"midwives_perc":0},{"id":9098,"lat":53.72366963,"lon":-1.31491936,"name":"Airedale Health Centre","trust":"South_West_Yorkshire_Partnership_NHS_Foundation_Trust","clean_trust":"South West Yorkshire Partnership NHS Foundation Trust","trust_id":220,"eu_staff_perc":0.5,"frontline_perc":0.7,"doctors_perc":3.1,"nurses_perc":0.4,"midwives_perc":0},{"id":9162,"lat":53.66995917,"lon":-1.41269352,"name":"Sharlston Medical Centre","trust":"South_West_Yorkshire_Partnership_NHS_Foundation_Trust","clean_trust":"South West Yorkshire Partnership NHS Foundation Trust","trust_id":220,"eu_staff_perc":0.5,"frontline_perc":0.7,"doctors_perc":3.1,"nurses_perc":0.4,"midwives_perc":0},{"id":9106,"lat":53.50389502,"lon":-1.47995586,"name":"Birdwell Clinic","trust":"South_West_Yorkshire_Partnership_NHS_Foundation_Trust","clean_trust":"South West Yorkshire Partnership NHS Foundation Trust","trust_id":220,"eu_staff_perc":0.5,"frontline_perc":0.7,"doctors_perc":3.1,"nurses_perc":0.4,"midwives_perc":0},{"id":9170,"lat":53.5470837,"lon":-1.48597679,"name":"The Grove Medical Practice","trust":"South_West_Yorkshire_Partnership_NHS_Foundation_Trust","clean_trust":"South West Yorkshire Partnership NHS Foundation Trust","trust_id":220,"eu_staff_perc":0.5,"frontline_perc":0.7,"doctors_perc":3.1,"nurses_perc":0.4,"midwives_perc":0},{"id":9114,"lat":53.54400616,"lon":-1.47277931,"name":"Cope Street Surgery","trust":"South_West_Yorkshire_Partnership_NHS_Foundation_Trust","clean_trust":"South West Yorkshire Partnership NHS Foundation Trust","trust_id":220,"eu_staff_perc":0.5,"frontline_perc":0.7,"doctors_perc":3.1,"nurses_perc":0.4,"midwives_perc":0},{"id":9178,"lat":53.68006255,"lon":-1.49627665,"name":"West Parade","trust":"South_West_Yorkshire_Partnership_NHS_Foundation_Trust","clean_trust":"South West Yorkshire Partnership NHS Foundation Trust","trust_id":220,"eu_staff_perc":0.5,"frontline_perc":0.7,"doctors_perc":3.1,"nurses_perc":0.4,"midwives_perc":0},{"id":9122,"lat":53.68152971,"lon":-1.49028811,"name":"Elite Studios","trust":"South_West_Yorkshire_Partnership_NHS_Foundation_Trust","clean_trust":"South West Yorkshire Partnership NHS Foundation Trust","trust_id":220,"eu_staff_perc":0.5,"frontline_perc":0.7,"doctors_perc":3.1,"nurses_perc":0.4,"midwives_perc":0},{"id":9130,"lat":53.53382315,"lon":-1.37068893,"name":"Garland House Surgery","trust":"South_West_Yorkshire_Partnership_NHS_Foundation_Trust","clean_trust":"South West Yorkshire Partnership NHS Foundation Trust","trust_id":220,"eu_staff_perc":0.5,"frontline_perc":0.7,"doctors_perc":3.1,"nurses_perc":0.4,"midwives_perc":0},{"id":9139,"lat":53.55755658,"lon":-1.44020033,"name":"Lundwood Health Centre","trust":"South_West_Yorkshire_Partnership_NHS_Foundation_Trust","clean_trust":"South West Yorkshire Partnership NHS Foundation Trust","trust_id":220,"eu_staff_perc":0.5,"frontline_perc":0.7,"doctors_perc":3.1,"nurses_perc":0.4,"midwives_perc":0},{"id":9147,"lat":53.71109505,"lon":-1.51182661,"name":"Outwood Park Medical Centre","trust":"South_West_Yorkshire_Partnership_NHS_Foundation_Trust","clean_trust":"South West Yorkshire Partnership NHS Foundation Trust","trust_id":220,"eu_staff_perc":0.5,"frontline_perc":0.7,"doctors_perc":3.1,"nurses_perc":0.4,"midwives_perc":0},{"id":9155,"lat":53.68176007,"lon":-1.66470287,"name":"Red Laithes Court","trust":"South_West_Yorkshire_Partnership_NHS_Foundation_Trust","clean_trust":"South West Yorkshire Partnership NHS Foundation Trust","trust_id":220,"eu_staff_perc":0.5,"frontline_perc":0.7,"doctors_perc":3.1,"nurses_perc":0.4,"midwives_perc":0},{"id":9099,"lat":53.54243476,"lon":-1.52519198,"name":"Apollo Court Medical Centre","trust":"South_West_Yorkshire_Partnership_NHS_Foundation_Trust","clean_trust":"South West Yorkshire Partnership NHS Foundation Trust","trust_id":220,"eu_staff_perc":0.5,"frontline_perc":0.7,"doctors_perc":3.1,"nurses_perc":0.4,"midwives_perc":0},{"id":9163,"lat":53.54640001,"lon":-1.4734438,"name":"Sheffield Road Surgery","trust":"South_West_Yorkshire_Partnership_NHS_Foundation_Trust","clean_trust":"South West Yorkshire Partnership NHS Foundation Trust","trust_id":220,"eu_staff_perc":0.5,"frontline_perc":0.7,"doctors_perc":3.1,"nurses_perc":0.4,"midwives_perc":0},{"id":9107,"lat":53.50569197,"lon":-1.4797831,"name":"Birdwell Medical Centre","trust":"South_West_Yorkshire_Partnership_NHS_Foundation_Trust","clean_trust":"South West Yorkshire Partnership NHS Foundation Trust","trust_id":220,"eu_staff_perc":0.5,"frontline_perc":0.7,"doctors_perc":3.1,"nurses_perc":0.4,"midwives_perc":0},{"id":9171,"lat":53.60802788,"lon":-1.3547449,"name":"The Poplars","trust":"South_West_Yorkshire_Partnership_NHS_Foundation_Trust","clean_trust":"South West Yorkshire Partnership NHS Foundation Trust","trust_id":220,"eu_staff_perc":0.5,"frontline_perc":0.7,"doctors_perc":3.1,"nurses_perc":0.4,"midwives_perc":0},{"id":9115,"lat":53.59792597,"lon":-1.45831297,"name":"Craven Practice","trust":"South_West_Yorkshire_Partnership_NHS_Foundation_Trust","clean_trust":"South West Yorkshire Partnership NHS Foundation Trust","trust_id":220,"eu_staff_perc":0.5,"frontline_perc":0.7,"doctors_perc":3.1,"nurses_perc":0.4,"midwives_perc":0},{"id":9123,"lat":53.71908061,"lon":-1.86115793,"name":"Elmfield House","trust":"South_West_Yorkshire_Partnership_NHS_Foundation_Trust","clean_trust":"South West Yorkshire Partnership NHS Foundation Trust","trust_id":220,"eu_staff_perc":0.5,"frontline_perc":0.7,"doctors_perc":3.1,"nurses_perc":0.4,"midwives_perc":0},{"id":9131,"lat":53.74382327,"lon":-2.01263839,"name":"Hebden Bridge Health Centre","trust":"South_West_Yorkshire_Partnership_NHS_Foundation_Trust","clean_trust":"South West Yorkshire Partnership NHS Foundation Trust","trust_id":220,"eu_staff_perc":0.5,"frontline_perc":0.7,"doctors_perc":3.1,"nurses_perc":0.4,"midwives_perc":0},{"id":9140,"lat":53.558741,"lon":-1.437977,"name":"Lundwood Medical Centre","trust":"South_West_Yorkshire_Partnership_NHS_Foundation_Trust","clean_trust":"South West Yorkshire Partnership NHS Foundation Trust","trust_id":220,"eu_staff_perc":0.5,"frontline_perc":0.7,"doctors_perc":3.1,"nurses_perc":0.4,"midwives_perc":0},{"id":9148,"lat":53.52577721,"lon":-1.62819395,"name":"Penistone Clinic","trust":"South_West_Yorkshire_Partnership_NHS_Foundation_Trust","clean_trust":"South West Yorkshire Partnership NHS Foundation Trust","trust_id":220,"eu_staff_perc":0.5,"frontline_perc":0.7,"doctors_perc":3.1,"nurses_perc":0.4,"midwives_perc":0},{"id":9156,"lat":53.57311151,"lon":-1.4688989,"name":"Rotherham Road Medical Centre","trust":"South_West_Yorkshire_Partnership_NHS_Foundation_Trust","clean_trust":"South West Yorkshire Partnership NHS Foundation Trust","trust_id":220,"eu_staff_perc":0.5,"frontline_perc":0.7,"doctors_perc":3.1,"nurses_perc":0.4,"midwives_perc":0},{"id":9100,"lat":0,"lon":0,"name":"Baghill House Health and Wellbeing Centre","trust":"South_West_Yorkshire_Partnership_NHS_Foundation_Trust","clean_trust":"South West Yorkshire Partnership NHS Foundation Trust","trust_id":220,"eu_staff_perc":0.5,"frontline_perc":0.7,"doctors_perc":3.1,"nurses_perc":0.4,"midwives_perc":0},{"id":9164,"lat":53.54877657,"lon":-1.56371335,"name":"Silkstone Health Centre","trust":"South_West_Yorkshire_Partnership_NHS_Foundation_Trust","clean_trust":"South West Yorkshire Partnership NHS Foundation Trust","trust_id":220,"eu_staff_perc":0.5,"frontline_perc":0.7,"doctors_perc":3.1,"nurses_perc":0.4,"midwives_perc":0},{"id":9108,"lat":53.70192342,"lon":-1.77816217,"name":"Brighouse Health Centre","trust":"South_West_Yorkshire_Partnership_NHS_Foundation_Trust","clean_trust":"South West Yorkshire Partnership NHS Foundation Trust","trust_id":220,"eu_staff_perc":0.5,"frontline_perc":0.7,"doctors_perc":3.1,"nurses_perc":0.4,"midwives_perc":0},{"id":9172,"lat":53.69049316,"lon":-1.32335504,"name":"Thornycroft","trust":"South_West_Yorkshire_Partnership_NHS_Foundation_Trust","clean_trust":"South West Yorkshire Partnership NHS Foundation Trust","trust_id":220,"eu_staff_perc":0.5,"frontline_perc":0.7,"doctors_perc":3.1,"nurses_perc":0.4,"midwives_perc":0},{"id":9116,"lat":53.65632085,"lon":-1.42654708,"name":"Crofton Health Centre","trust":"South_West_Yorkshire_Partnership_NHS_Foundation_Trust","clean_trust":"South West Yorkshire Partnership NHS Foundation Trust","trust_id":220,"eu_staff_perc":0.5,"frontline_perc":0.7,"doctors_perc":3.1,"nurses_perc":0.4,"midwives_perc":0},{"id":9124,"lat":53.60651461,"lon":-1.78354338,"name":"Enfield Down","trust":"South_West_Yorkshire_Partnership_NHS_Foundation_Trust","clean_trust":"South West Yorkshire Partnership NHS Foundation Trust","trust_id":220,"eu_staff_perc":0.5,"frontline_perc":0.7,"doctors_perc":3.1,"nurses_perc":0.4,"midwives_perc":0},{"id":9132,"lat":53.55917688,"lon":-1.49743935,"name":"Hilder House","trust":"South_West_Yorkshire_Partnership_NHS_Foundation_Trust","clean_trust":"South West Yorkshire Partnership NHS Foundation Trust","trust_id":220,"eu_staff_perc":0.5,"frontline_perc":0.7,"doctors_perc":3.1,"nurses_perc":0.4,"midwives_perc":0},{"id":9141,"lat":53.68168517,"lon":-1.8496381,"name":"Lyndhurst Hospital","trust":"South_West_Yorkshire_Partnership_NHS_Foundation_Trust","clean_trust":"South West Yorkshire Partnership NHS Foundation Trust","trust_id":220,"eu_staff_perc":0.5,"frontline_perc":0.7,"doctors_perc":3.1,"nurses_perc":0.4,"midwives_perc":0},{"id":9149,"lat":53.52356493,"lon":-1.63073226,"name":"Penistone Group Practice","trust":"South_West_Yorkshire_Partnership_NHS_Foundation_Trust","clean_trust":"South West Yorkshire Partnership NHS Foundation Trust","trust_id":220,"eu_staff_perc":0.5,"frontline_perc":0.7,"doctors_perc":3.1,"nurses_perc":0.4,"midwives_perc":0},{"id":9157,"lat":53.68553363,"lon":-1.84052012,"name":"Royde Ellen Health Centre","trust":"South_West_Yorkshire_Partnership_NHS_Foundation_Trust","clean_trust":"South West Yorkshire Partnership NHS Foundation Trust","trust_id":220,"eu_staff_perc":0.5,"frontline_perc":0.7,"doctors_perc":3.1,"nurses_perc":0.4,"midwives_perc":0},{"id":9101,"lat":53.54695386,"lon":-1.45461721,"name":"Barnsley Ihbtt","trust":"South_West_Yorkshire_Partnership_NHS_Foundation_Trust","clean_trust":"South West Yorkshire Partnership NHS Foundation Trust","trust_id":220,"eu_staff_perc":0.5,"frontline_perc":0.7,"doctors_perc":3.1,"nurses_perc":0.4,"midwives_perc":0},{"id":9165,"lat":53.59445375,"lon":-1.3118803,"name":"South Kirkby Health Centre","trust":"South_West_Yorkshire_Partnership_NHS_Foundation_Trust","clean_trust":"South West Yorkshire Partnership NHS Foundation Trust","trust_id":220,"eu_staff_perc":0.5,"frontline_perc":0.7,"doctors_perc":3.1,"nurses_perc":0.4,"midwives_perc":0},{"id":9109,"lat":53.72792739,"lon":-1.85567248,"name":"Britannia Works","trust":"South_West_Yorkshire_Partnership_NHS_Foundation_Trust","clean_trust":"South West Yorkshire Partnership NHS Foundation Trust","trust_id":220,"eu_staff_perc":0.5,"frontline_perc":0.7,"doctors_perc":3.1,"nurses_perc":0.4,"midwives_perc":0},{"id":9173,"lat":53.6800345,"lon":-1.4943468,"name":"Trinity Medical Centre","trust":"South_West_Yorkshire_Partnership_NHS_Foundation_Trust","clean_trust":"South West Yorkshire Partnership NHS Foundation Trust","trust_id":220,"eu_staff_perc":0.5,"frontline_perc":0.7,"doctors_perc":3.1,"nurses_perc":0.4,"midwives_perc":0},{"id":9117,"lat":53.65547427,"lon":-1.81633811,"name":"Dales Unit","trust":"South_West_Yorkshire_Partnership_NHS_Foundation_Trust","clean_trust":"South West Yorkshire Partnership NHS Foundation Trust","trust_id":220,"eu_staff_perc":0.5,"frontline_perc":0.7,"doctors_perc":3.1,"nurses_perc":0.4,"midwives_perc":0},{"id":9125,"lat":53.66229154,"lon":-1.78135129,"name":"Fartown Health Centre","trust":"South_West_Yorkshire_Partnership_NHS_Foundation_Trust","clean_trust":"South West Yorkshire Partnership NHS Foundation Trust","trust_id":220,"eu_staff_perc":0.5,"frontline_perc":0.7,"doctors_perc":3.1,"nurses_perc":0.4,"midwives_perc":0},{"id":9133,"lat":53.49982087,"lon":-1.43771961,"name":"Hoyland Medical Practice","trust":"South_West_Yorkshire_Partnership_NHS_Foundation_Trust","clean_trust":"South West Yorkshire Partnership NHS Foundation Trust","trust_id":220,"eu_staff_perc":0.5,"frontline_perc":0.7,"doctors_perc":3.1,"nurses_perc":0.4,"midwives_perc":0},{"id":9142,"lat":53.67050845,"lon":-1.48942601,"name":"Manygates Clinic","trust":"South_West_Yorkshire_Partnership_NHS_Foundation_Trust","clean_trust":"South West Yorkshire Partnership NHS Foundation Trust","trust_id":220,"eu_staff_perc":0.5,"frontline_perc":0.7,"doctors_perc":3.1,"nurses_perc":0.4,"midwives_perc":0},{"id":9150,"lat":53.69112578,"lon":-1.30813551,"name":"Pomfret Lodge","trust":"South_West_Yorkshire_Partnership_NHS_Foundation_Trust","clean_trust":"South West Yorkshire Partnership NHS Foundation Trust","trust_id":220,"eu_staff_perc":0.5,"frontline_perc":0.7,"doctors_perc":3.1,"nurses_perc":0.4,"midwives_perc":0},{"id":9094,"lat":53.71902211,"lon":-1.36977626,"name":"Castleford, Normanton and District Hospital","trust":"South_West_Yorkshire_Partnership_NHS_Foundation_Trust","clean_trust":"South West Yorkshire Partnership NHS Foundation Trust","trust_id":220,"eu_staff_perc":0.5,"frontline_perc":0.7,"doctors_perc":3.1,"nurses_perc":0.4,"midwives_perc":0},{"id":9158,"lat":53.59794098,"lon":-1.45370418,"name":"Royston Clinic","trust":"South_West_Yorkshire_Partnership_NHS_Foundation_Trust","clean_trust":"South West Yorkshire Partnership NHS Foundation Trust","trust_id":220,"eu_staff_perc":0.5,"frontline_perc":0.7,"doctors_perc":3.1,"nurses_perc":0.4,"midwives_perc":0},{"id":9102,"lat":53.54695386,"lon":-1.45461721,"name":"Barnsley NHS Stop Smoking Service","trust":"South_West_Yorkshire_Partnership_NHS_Foundation_Trust","clean_trust":"South West Yorkshire Partnership NHS Foundation Trust","trust_id":220,"eu_staff_perc":0.5,"frontline_perc":0.7,"doctors_perc":3.1,"nurses_perc":0.4,"midwives_perc":0},{"id":9166,"lat":53.71401041,"lon":-1.47581652,"name":"Stanley Health Centre","trust":"South_West_Yorkshire_Partnership_NHS_Foundation_Trust","clean_trust":"South West Yorkshire Partnership NHS Foundation Trust","trust_id":220,"eu_staff_perc":0.5,"frontline_perc":0.7,"doctors_perc":3.1,"nurses_perc":0.4,"midwives_perc":0},{"id":9110,"lat":53.72524508,"lon":-1.86000099,"name":"Broad Street Plaza","trust":"South_West_Yorkshire_Partnership_NHS_Foundation_Trust","clean_trust":"South West Yorkshire Partnership NHS Foundation Trust","trust_id":220,"eu_staff_perc":0.5,"frontline_perc":0.7,"doctors_perc":3.1,"nurses_perc":0.4,"midwives_perc":0},{"id":9174,"lat":53.54938013,"lon":-1.44085153,"name":"Unit 33 Grange Lane Industrial Estate","trust":"South_West_Yorkshire_Partnership_NHS_Foundation_Trust","clean_trust":"South West Yorkshire Partnership NHS Foundation Trust","trust_id":220,"eu_staff_perc":0.5,"frontline_perc":0.7,"doctors_perc":3.1,"nurses_perc":0.4,"midwives_perc":0},{"id":9118,"lat":53.533464,"lon":-1.37247455,"name":"Darfield Health Centre","trust":"South_West_Yorkshire_Partnership_NHS_Foundation_Trust","clean_trust":"South West Yorkshire Partnership NHS Foundation Trust","trust_id":220,"eu_staff_perc":0.5,"frontline_perc":0.7,"doctors_perc":3.1,"nurses_perc":0.4,"midwives_perc":0},{"id":9126,"lat":53.67600717,"lon":-1.3564772,"name":"Featherstone Health Centre","trust":"South_West_Yorkshire_Partnership_NHS_Foundation_Trust","clean_trust":"South West Yorkshire Partnership NHS Foundation Trust","trust_id":220,"eu_staff_perc":0.5,"frontline_perc":0.7,"doctors_perc":3.1,"nurses_perc":0.4,"midwives_perc":0},{"id":9134,"lat":53.55782941,"lon":-1.48574326,"name":"Huddersfield Road Surgery","trust":"South_West_Yorkshire_Partnership_NHS_Foundation_Trust","clean_trust":"South West Yorkshire Partnership NHS Foundation Trust","trust_id":220,"eu_staff_perc":0.5,"frontline_perc":0.7,"doctors_perc":3.1,"nurses_perc":0.4,"midwives_perc":0},{"id":2240,"lat":52.77501906,"lon":-1.55861111,"name":"Swadlincote Health Centre","trust":"Derbyshire_Community_Health_Services_NHS_Foundation_Trust","clean_trust":"Derbyshire Community Health Services NHS Foundation Trust","trust_id":221,"eu_staff_perc":0.6,"frontline_perc":0.6,"doctors_perc":2,"nurses_perc":0.5,"midwives_perc":0},{"id":2248,"lat":52.96723981,"lon":-1.31134542,"name":"Tollbar House","trust":"Derbyshire_Community_Health_Services_NHS_Foundation_Trust","clean_trust":"Derbyshire Community Health Services NHS Foundation Trust","trust_id":221,"eu_staff_perc":0.6,"frontline_perc":0.6,"doctors_perc":2,"nurses_perc":0.5,"midwives_perc":0},{"id":2216,"lat":52.9127683,"lon":-1.48098752,"name":"Mill Hill Community Dental Clinic","trust":"Derbyshire_Community_Health_Services_NHS_Foundation_Trust","clean_trust":"Derbyshire Community Health Services NHS Foundation Trust","trust_id":221,"eu_staff_perc":0.6,"frontline_perc":0.6,"doctors_perc":2,"nurses_perc":0.5,"midwives_perc":0},{"id":2224,"lat":52.83888335,"lon":-1.5491531,"name":"Repton Health Centre","trust":"Derbyshire_Community_Health_Services_NHS_Foundation_Trust","clean_trust":"Derbyshire Community Health Services NHS Foundation Trust","trust_id":221,"eu_staff_perc":0.6,"frontline_perc":0.6,"doctors_perc":2,"nurses_perc":0.5,"midwives_perc":0},{"id":2232,"lat":53.09933114,"lon":-1.34593573,"name":"South Normanton Clinic","trust":"Derbyshire_Community_Health_Services_NHS_Foundation_Trust","clean_trust":"Derbyshire Community Health Services NHS Foundation Trust","trust_id":221,"eu_staff_perc":0.6,"frontline_perc":0.6,"doctors_perc":2,"nurses_perc":0.5,"midwives_perc":0},{"id":2178,"lat":53.01265515,"lon":-1.72832495,"name":"Ashbourne Health Centre","trust":"Derbyshire_Community_Health_Services_NHS_Foundation_Trust","clean_trust":"Derbyshire Community Health Services NHS Foundation Trust","trust_id":221,"eu_staff_perc":0.6,"frontline_perc":0.6,"doctors_perc":2,"nurses_perc":0.5,"midwives_perc":0},{"id":2186,"lat":53.25191665,"lon":-1.90887947,"name":"Buxton Social Services Area Office","trust":"Derbyshire_Community_Health_Services_NHS_Foundation_Trust","clean_trust":"Derbyshire Community Health Services NHS Foundation Trust","trust_id":221,"eu_staff_perc":0.6,"frontline_perc":0.6,"doctors_perc":2,"nurses_perc":0.5,"midwives_perc":0},{"id":2194,"lat":53.23876735,"lon":-1.4333088,"name":"Derbyshire County Pct Sexual Health","trust":"Derbyshire_Community_Health_Services_NHS_Foundation_Trust","clean_trust":"Derbyshire Community Health Services NHS Foundation Trust","trust_id":221,"eu_staff_perc":0.6,"frontline_perc":0.6,"doctors_perc":2,"nurses_perc":0.5,"midwives_perc":0},{"id":10270,"lat":53.04748412,"lon":-1.41219941,"name":"Ripley Hospital","trust":"Derbyshire_Community_Health_Services_NHS_Foundation_Trust","clean_trust":"Derbyshire Community Health Services NHS Foundation Trust","trust_id":221,"eu_staff_perc":0.6,"frontline_perc":0.6,"doctors_perc":2,"nurses_perc":0.5,"midwives_perc":0},{"id":2202,"lat":53.4426089,"lon":-1.95250844,"name":"Glossopdale","trust":"Derbyshire_Community_Health_Services_NHS_Foundation_Trust","clean_trust":"Derbyshire Community Health Services NHS Foundation Trust","trust_id":221,"eu_staff_perc":0.6,"frontline_perc":0.6,"doctors_perc":2,"nurses_perc":0.5,"midwives_perc":0},{"id":2241,"lat":52.77579983,"lon":-1.56250881,"name":"Swadlincote Surgery","trust":"Derbyshire_Community_Health_Services_NHS_Foundation_Trust","clean_trust":"Derbyshire Community Health Services NHS Foundation Trust","trust_id":221,"eu_staff_perc":0.6,"frontline_perc":0.6,"doctors_perc":2,"nurses_perc":0.5,"midwives_perc":0},{"id":2249,"lat":52.8966054,"lon":-1.484717,"name":"Village Community Medical Centre","trust":"Derbyshire_Community_Health_Services_NHS_Foundation_Trust","clean_trust":"Derbyshire Community Health Services NHS Foundation Trust","trust_id":221,"eu_staff_perc":0.6,"frontline_perc":0.6,"doctors_perc":2,"nurses_perc":0.5,"midwives_perc":0},{"id":1750,"lat":53.2481875,"lon":-1.908265,"name":"Buxton Hospital","trust":"Derbyshire_Community_Health_Services_NHS_Foundation_Trust","clean_trust":"Derbyshire Community Health Services NHS Foundation Trust","trust_id":221,"eu_staff_perc":0.6,"frontline_perc":0.6,"doctors_perc":2,"nurses_perc":0.5,"midwives_perc":0},{"id":2217,"lat":53.36740205,"lon":-1.99832267,"name":"New Mills Health Centre","trust":"Derbyshire_Community_Health_Services_NHS_Foundation_Trust","clean_trust":"Derbyshire Community Health Services NHS Foundation Trust","trust_id":221,"eu_staff_perc":0.6,"frontline_perc":0.6,"doctors_perc":2,"nurses_perc":0.5,"midwives_perc":0},{"id":2225,"lat":53.04748412,"lon":-1.41219941,"name":"Ripley Minor Injury Unit","trust":"Derbyshire_Community_Health_Services_NHS_Foundation_Trust","clean_trust":"Derbyshire Community Health Services NHS Foundation Trust","trust_id":221,"eu_staff_perc":0.6,"frontline_perc":0.6,"doctors_perc":2,"nurses_perc":0.5,"midwives_perc":0},{"id":2233,"lat":53.10447553,"lon":-1.34313924,"name":"South Normanton Hub Joint Service Centre","trust":"Derbyshire_Community_Health_Services_NHS_Foundation_Trust","clean_trust":"Derbyshire Community Health Services NHS Foundation Trust","trust_id":221,"eu_staff_perc":0.6,"frontline_perc":0.6,"doctors_perc":2,"nurses_perc":0.5,"midwives_perc":0},{"id":2179,"lat":53.23718525,"lon":-1.43329972,"name":"Bayheath House","trust":"Derbyshire_Community_Health_Services_NHS_Foundation_Trust","clean_trust":"Derbyshire Community Health Services NHS Foundation Trust","trust_id":221,"eu_staff_perc":0.6,"frontline_perc":0.6,"doctors_perc":2,"nurses_perc":0.5,"midwives_perc":0},{"id":2187,"lat":53.23672827,"lon":-1.43360541,"name":"Cash Project","trust":"Derbyshire_Community_Health_Services_NHS_Foundation_Trust","clean_trust":"Derbyshire Community Health Services NHS Foundation Trust","trust_id":221,"eu_staff_perc":0.6,"frontline_perc":0.6,"doctors_perc":2,"nurses_perc":0.5,"midwives_perc":0},{"id":2195,"lat":53.18979983,"lon":-1.34635635,"name":"Disability Services Store","trust":"Derbyshire_Community_Health_Services_NHS_Foundation_Trust","clean_trust":"Derbyshire Community Health Services NHS Foundation Trust","trust_id":221,"eu_staff_perc":0.6,"frontline_perc":0.6,"doctors_perc":2,"nurses_perc":0.5,"midwives_perc":0},{"id":2203,"lat":53.2999451,"lon":-1.4937276,"name":"Gosforth Valley Medical Centre","trust":"Derbyshire_Community_Health_Services_NHS_Foundation_Trust","clean_trust":"Derbyshire Community Health Services NHS Foundation Trust","trust_id":221,"eu_staff_perc":0.6,"frontline_perc":0.6,"doctors_perc":2,"nurses_perc":0.5,"midwives_perc":0},{"id":2162,"lat":53.2392621,"lon":-1.4580491,"name":"Ash Green","trust":"Derbyshire_Community_Health_Services_NHS_Foundation_Trust","clean_trust":"Derbyshire Community Health Services NHS Foundation Trust","trust_id":221,"eu_staff_perc":0.6,"frontline_perc":0.6,"doctors_perc":2,"nurses_perc":0.5,"midwives_perc":0},{"id":2170,"lat":53.2187969,"lon":-1.6723792,"name":"Newholme Hospital","trust":"Derbyshire_Community_Health_Services_NHS_Foundation_Trust","clean_trust":"Derbyshire Community Health Services NHS Foundation Trust","trust_id":221,"eu_staff_perc":0.6,"frontline_perc":0.6,"doctors_perc":2,"nurses_perc":0.5,"midwives_perc":0},{"id":2242,"lat":53.09793105,"lon":-1.39397385,"name":"The Alfreton Primary Care Centre","trust":"Derbyshire_Community_Health_Services_NHS_Foundation_Trust","clean_trust":"Derbyshire Community Health Services NHS Foundation Trust","trust_id":221,"eu_staff_perc":0.6,"frontline_perc":0.6,"doctors_perc":2,"nurses_perc":0.5,"midwives_perc":0},{"id":2250,"lat":53.23076137,"lon":-1.28652926,"name":"Wellbeck Road Health Centre","trust":"Derbyshire_Community_Health_Services_NHS_Foundation_Trust","clean_trust":"Derbyshire Community Health Services NHS Foundation Trust","trust_id":221,"eu_staff_perc":0.6,"frontline_perc":0.6,"doctors_perc":2,"nurses_perc":0.5,"midwives_perc":0},{"id":6731,"lat":52.98816146,"lon":-1.32075357,"name":"Ilkeston Community Hospital","trust":"Derbyshire_Community_Health_Services_NHS_Foundation_Trust","clean_trust":"Derbyshire Community Health Services NHS Foundation Trust","trust_id":221,"eu_staff_perc":0.6,"frontline_perc":0.6,"doctors_perc":2,"nurses_perc":0.5,"midwives_perc":0},{"id":2210,"lat":52.96817428,"lon":-1.3078341,"name":"Ilkeston Health Centre","trust":"Derbyshire_Community_Health_Services_NHS_Foundation_Trust","clean_trust":"Derbyshire Community Health Services NHS Foundation Trust","trust_id":221,"eu_staff_perc":0.6,"frontline_perc":0.6,"doctors_perc":2,"nurses_perc":0.5,"midwives_perc":0},{"id":2218,"lat":53.25608947,"lon":-1.45070756,"name":"Newbold Surgery","trust":"Derbyshire_Community_Health_Services_NHS_Foundation_Trust","clean_trust":"Derbyshire Community Health Services NHS Foundation Trust","trust_id":221,"eu_staff_perc":0.6,"frontline_perc":0.6,"doctors_perc":2,"nurses_perc":0.5,"midwives_perc":0},{"id":2226,"lat":53.2036187,"lon":-1.21839657,"name":"Rockley House","trust":"Derbyshire_Community_Health_Services_NHS_Foundation_Trust","clean_trust":"Derbyshire Community Health Services NHS Foundation Trust","trust_id":221,"eu_staff_perc":0.6,"frontline_perc":0.6,"doctors_perc":2,"nurses_perc":0.5,"midwives_perc":0},{"id":2234,"lat":53.27782633,"lon":-1.2655748,"name":"Springs Health Centre","trust":"Derbyshire_Community_Health_Services_NHS_Foundation_Trust","clean_trust":"Derbyshire Community Health Services NHS Foundation Trust","trust_id":221,"eu_staff_perc":0.6,"frontline_perc":0.6,"doctors_perc":2,"nurses_perc":0.5,"midwives_perc":0},{"id":2180,"lat":53.01846023,"lon":-1.48593375,"name":"Belper Clinic","trust":"Derbyshire_Community_Health_Services_NHS_Foundation_Trust","clean_trust":"Derbyshire Community Health Services NHS Foundation Trust","trust_id":221,"eu_staff_perc":0.6,"frontline_perc":0.6,"doctors_perc":2,"nurses_perc":0.5,"midwives_perc":0},{"id":2188,"lat":53.32348666,"lon":-1.91111848,"name":"Chapel Health Centre","trust":"Derbyshire_Community_Health_Services_NHS_Foundation_Trust","clean_trust":"Derbyshire Community Health Services NHS Foundation Trust","trust_id":221,"eu_staff_perc":0.6,"frontline_perc":0.6,"doctors_perc":2,"nurses_perc":0.5,"midwives_perc":0},{"id":2196,"lat":53.30235695,"lon":-1.47508364,"name":"Dronfield Health Centre","trust":"Derbyshire_Community_Health_Services_NHS_Foundation_Trust","clean_trust":"Derbyshire Community Health Services NHS Foundation Trust","trust_id":221,"eu_staff_perc":0.6,"frontline_perc":0.6,"doctors_perc":2,"nurses_perc":0.5,"midwives_perc":0},{"id":2204,"lat":53.07886998,"lon":-1.57083436,"name":"Hannage Brook Medical Centre","trust":"Derbyshire_Community_Health_Services_NHS_Foundation_Trust","clean_trust":"Derbyshire Community Health Services NHS Foundation Trust","trust_id":221,"eu_staff_perc":0.6,"frontline_perc":0.6,"doctors_perc":2,"nurses_perc":0.5,"midwives_perc":0},{"id":2163,"lat":53.01846023,"lon":-1.48593375,"name":"Babington Hospital","trust":"Derbyshire_Community_Health_Services_NHS_Foundation_Trust","clean_trust":"Derbyshire Community Health Services NHS Foundation Trust","trust_id":221,"eu_staff_perc":0.6,"frontline_perc":0.6,"doctors_perc":2,"nurses_perc":0.5,"midwives_perc":0},{"id":2171,"lat":53.04748412,"lon":-1.41219941,"name":"Ripley Hospital","trust":"Derbyshire_Community_Health_Services_NHS_Foundation_Trust","clean_trust":"Derbyshire Community Health Services NHS Foundation Trust","trust_id":221,"eu_staff_perc":0.6,"frontline_perc":0.6,"doctors_perc":2,"nurses_perc":0.5,"midwives_perc":0},{"id":2243,"lat":52.9165942,"lon":-1.45990723,"name":"The Roundhouse","trust":"Derbyshire_Community_Health_Services_NHS_Foundation_Trust","clean_trust":"Derbyshire Community Health Services NHS Foundation Trust","trust_id":221,"eu_staff_perc":0.6,"frontline_perc":0.6,"doctors_perc":2,"nurses_perc":0.5,"midwives_perc":0},{"id":2251,"lat":52.86834514,"lon":-1.63089395,"name":"Wellbrook Medical Centre","trust":"Derbyshire_Community_Health_Services_NHS_Foundation_Trust","clean_trust":"Derbyshire Community Health Services NHS Foundation Trust","trust_id":221,"eu_staff_perc":0.6,"frontline_perc":0.6,"doctors_perc":2,"nurses_perc":0.5,"midwives_perc":0},{"id":2211,"lat":52.98816146,"lon":-1.32075357,"name":"Ilkeston Minor Injury Unit","trust":"Derbyshire_Community_Health_Services_NHS_Foundation_Trust","clean_trust":"Derbyshire Community Health Services NHS Foundation Trust","trust_id":221,"eu_staff_perc":0.6,"frontline_perc":0.6,"doctors_perc":2,"nurses_perc":0.5,"midwives_perc":0},{"id":2219,"lat":52.78518138,"lon":-1.57389089,"name":"Newhall Surgery","trust":"Derbyshire_Community_Health_Services_NHS_Foundation_Trust","clean_trust":"Derbyshire Community Health Services NHS Foundation Trust","trust_id":221,"eu_staff_perc":0.6,"frontline_perc":0.6,"doctors_perc":2,"nurses_perc":0.5,"midwives_perc":0},{"id":2227,"lat":53.23773076,"lon":-1.43082032,"name":"Saltergate Health Centre","trust":"Derbyshire_Community_Health_Services_NHS_Foundation_Trust","clean_trust":"Derbyshire Community Health Services NHS Foundation Trust","trust_id":221,"eu_staff_perc":0.6,"frontline_perc":0.6,"doctors_perc":2,"nurses_perc":0.5,"midwives_perc":0},{"id":2235,"lat":52.9149836,"lon":-1.4674352,"name":"St Andrews House","trust":"Derbyshire_Community_Health_Services_NHS_Foundation_Trust","clean_trust":"Derbyshire Community Health Services NHS Foundation Trust","trust_id":221,"eu_staff_perc":0.6,"frontline_perc":0.6,"doctors_perc":2,"nurses_perc":0.5,"midwives_perc":0},{"id":2181,"lat":53.23027074,"lon":-1.28866465,"name":"Bolsover Health Clinic","trust":"Derbyshire_Community_Health_Services_NHS_Foundation_Trust","clean_trust":"Derbyshire Community Health Services NHS Foundation Trust","trust_id":221,"eu_staff_perc":0.6,"frontline_perc":0.6,"doctors_perc":2,"nurses_perc":0.5,"midwives_perc":0},{"id":2189,"lat":53.23916444,"lon":-1.43743901,"name":"Chesterfield Social Services Area Office","trust":"Derbyshire_Community_Health_Services_NHS_Foundation_Trust","clean_trust":"Derbyshire Community Health Services NHS Foundation Trust","trust_id":221,"eu_staff_perc":0.6,"frontline_perc":0.6,"doctors_perc":2,"nurses_perc":0.5,"midwives_perc":0},{"id":2197,"lat":53.238525,"lon":-1.4258653,"name":"Durrant House","trust":"Derbyshire_Community_Health_Services_NHS_Foundation_Trust","clean_trust":"Derbyshire Community Health Services NHS Foundation Trust","trust_id":221,"eu_staff_perc":0.6,"frontline_perc":0.6,"doctors_perc":2,"nurses_perc":0.5,"midwives_perc":0},{"id":2205,"lat":53.24197925,"lon":-1.43391073,"name":"Health Informatics Service","trust":"Derbyshire_Community_Health_Services_NHS_Foundation_Trust","clean_trust":"Derbyshire Community Health Services NHS Foundation Trust","trust_id":221,"eu_staff_perc":0.6,"frontline_perc":0.6,"doctors_perc":2,"nurses_perc":0.5,"midwives_perc":0},{"id":8088,"lat":53.2481875,"lon":-1.908265,"name":"Buxton Cottage Hospital - Salford Royal NHS Foundation Trust","trust":"Derbyshire_Community_Health_Services_NHS_Foundation_Trust","clean_trust":"Derbyshire Community Health Services NHS Foundation Trust","trust_id":221,"eu_staff_perc":0.6,"frontline_perc":0.6,"doctors_perc":2,"nurses_perc":0.5,"midwives_perc":0},{"id":2164,"lat":53.23152832,"lon":-1.28251659,"name":"Bolsover Hospital","trust":"Derbyshire_Community_Health_Services_NHS_Foundation_Trust","clean_trust":"Derbyshire Community Health Services NHS Foundation Trust","trust_id":221,"eu_staff_perc":0.6,"frontline_perc":0.6,"doctors_perc":2,"nurses_perc":0.5,"midwives_perc":0},{"id":2244,"lat":52.77113297,"lon":-1.5361275,"name":"The Surgery (Burton Road)","trust":"Derbyshire_Community_Health_Services_NHS_Foundation_Trust","clean_trust":"Derbyshire Community Health Services NHS Foundation Trust","trust_id":221,"eu_staff_perc":0.6,"frontline_perc":0.6,"doctors_perc":2,"nurses_perc":0.5,"midwives_perc":0},{"id":2252,"lat":53.28395726,"lon":-1.20803719,"name":"Whitwell Community Centre","trust":"Derbyshire_Community_Health_Services_NHS_Foundation_Trust","clean_trust":"Derbyshire Community Health Services NHS Foundation Trust","trust_id":221,"eu_staff_perc":0.6,"frontline_perc":0.6,"doctors_perc":2,"nurses_perc":0.5,"midwives_perc":0},{"id":2212,"lat":53.30443527,"lon":-1.46338324,"name":"Intermediate Care Service","trust":"Derbyshire_Community_Health_Services_NHS_Foundation_Trust","clean_trust":"Derbyshire Community Health Services NHS Foundation Trust","trust_id":221,"eu_staff_perc":0.6,"frontline_perc":0.6,"doctors_perc":2,"nurses_perc":0.5,"midwives_perc":0},{"id":2220,"lat":52.73564805,"lon":-1.5613704,"name":"Overseal Surgery","trust":"Derbyshire_Community_Health_Services_NHS_Foundation_Trust","clean_trust":"Derbyshire Community Health Services NHS Foundation Trust","trust_id":221,"eu_staff_perc":0.6,"frontline_perc":0.6,"doctors_perc":2,"nurses_perc":0.5,"midwives_perc":0},{"id":2228,"lat":53.23900768,"lon":-1.43092326,"name":"Scarsdale Hospital (Pct Hq)","trust":"Derbyshire_Community_Health_Services_NHS_Foundation_Trust","clean_trust":"Derbyshire Community Health Services NHS Foundation Trust","trust_id":221,"eu_staff_perc":0.6,"frontline_perc":0.6,"doctors_perc":2,"nurses_perc":0.5,"midwives_perc":0},{"id":2236,"lat":53.1462152,"lon":-1.33882479,"name":"Staffa Health Centre","trust":"Derbyshire_Community_Health_Services_NHS_Foundation_Trust","clean_trust":"Derbyshire Community Health Services NHS Foundation Trust","trust_id":221,"eu_staff_perc":0.6,"frontline_perc":0.6,"doctors_perc":2,"nurses_perc":0.5,"midwives_perc":0},{"id":2182,"lat":52.96942957,"lon":-1.62492678,"name":"Brailsford Medical Centre","trust":"Derbyshire_Community_Health_Services_NHS_Foundation_Trust","clean_trust":"Derbyshire Community Health Services NHS Foundation Trust","trust_id":221,"eu_staff_perc":0.6,"frontline_perc":0.6,"doctors_perc":2,"nurses_perc":0.5,"midwives_perc":0},{"id":2190,"lat":53.16530196,"lon":-1.4150259,"name":"Clay Cross Clinic","trust":"Derbyshire_Community_Health_Services_NHS_Foundation_Trust","clean_trust":"Derbyshire Community Health Services NHS Foundation Trust","trust_id":221,"eu_staff_perc":0.6,"frontline_perc":0.6,"doctors_perc":2,"nurses_perc":0.5,"midwives_perc":0},{"id":2198,"lat":53.30765746,"lon":-1.35525877,"name":"Eckington Health Centre","trust":"Derbyshire_Community_Health_Services_NHS_Foundation_Trust","clean_trust":"Derbyshire Community Health Services NHS Foundation Trust","trust_id":221,"eu_staff_perc":0.6,"frontline_perc":0.6,"doctors_perc":2,"nurses_perc":0.5,"midwives_perc":0},{"id":2206,"lat":52.90417655,"lon":-1.28258734,"name":"Highfields Medical Centre","trust":"Derbyshire_Community_Health_Services_NHS_Foundation_Trust","clean_trust":"Derbyshire Community Health Services NHS Foundation Trust","trust_id":221,"eu_staff_perc":0.6,"frontline_perc":0.6,"doctors_perc":2,"nurses_perc":0.5,"midwives_perc":0},{"id":8270,"lat":53.2187969,"lon":-1.6723792,"name":"Newholme Hospital","trust":"Derbyshire_Community_Health_Services_NHS_Foundation_Trust","clean_trust":"Derbyshire Community Health Services NHS Foundation Trust","trust_id":221,"eu_staff_perc":0.6,"frontline_perc":0.6,"doctors_perc":2,"nurses_perc":0.5,"midwives_perc":0},{"id":2165,"lat":53.2481875,"lon":-1.908265,"name":"Buxton Hospital","trust":"Derbyshire_Community_Health_Services_NHS_Foundation_Trust","clean_trust":"Derbyshire Community Health Services NHS Foundation Trust","trust_id":221,"eu_staff_perc":0.6,"frontline_perc":0.6,"doctors_perc":2,"nurses_perc":0.5,"midwives_perc":0},{"id":2174,"lat":53.2213461,"lon":-1.44138697,"name":"Walton Hospital","trust":"Derbyshire_Community_Health_Services_NHS_Foundation_Trust","clean_trust":"Derbyshire Community Health Services NHS Foundation Trust","trust_id":221,"eu_staff_perc":0.6,"frontline_perc":0.6,"doctors_perc":2,"nurses_perc":0.5,"midwives_perc":0},{"id":2245,"lat":53.01335578,"lon":-1.73749677,"name":"The Surgery (Clifton Road)","trust":"Derbyshire_Community_Health_Services_NHS_Foundation_Trust","clean_trust":"Derbyshire Community Health Services NHS Foundation Trust","trust_id":221,"eu_staff_perc":0.6,"frontline_perc":0.6,"doctors_perc":2,"nurses_perc":0.5,"midwives_perc":0},{"id":2253,"lat":53.2842186,"lon":-1.2074194,"name":"Whitwell Health Centre","trust":"Derbyshire_Community_Health_Services_NHS_Foundation_Trust","clean_trust":"Derbyshire Community Health Services NHS Foundation Trust","trust_id":221,"eu_staff_perc":0.6,"frontline_perc":0.6,"doctors_perc":2,"nurses_perc":0.5,"midwives_perc":0},{"id":2262,"lat":53.2213461,"lon":-1.44138697,"name":"Walton Hospital","trust":"Derbyshire_Community_Health_Services_NHS_Foundation_Trust","clean_trust":"Derbyshire Community Health Services NHS Foundation Trust","trust_id":221,"eu_staff_perc":0.6,"frontline_perc":0.6,"doctors_perc":2,"nurses_perc":0.5,"midwives_perc":0},{"id":2213,"lat":52.90155285,"lon":-1.27253067,"name":"Long Eaton Health Centre","trust":"Derbyshire_Community_Health_Services_NHS_Foundation_Trust","clean_trust":"Derbyshire Community Health Services NHS Foundation Trust","trust_id":221,"eu_staff_perc":0.6,"frontline_perc":0.6,"doctors_perc":2,"nurses_perc":0.5,"midwives_perc":0},{"id":2221,"lat":52.90601888,"lon":-1.47767563,"name":"Peartree Clinic","trust":"Derbyshire_Community_Health_Services_NHS_Foundation_Trust","clean_trust":"Derbyshire Community Health Services NHS Foundation Trust","trust_id":221,"eu_staff_perc":0.6,"frontline_perc":0.6,"doctors_perc":2,"nurses_perc":0.5,"midwives_perc":0},{"id":2229,"lat":53.20316564,"lon":-1.21511116,"name":"Shirebrook Health Centre","trust":"Derbyshire_Community_Health_Services_NHS_Foundation_Trust","clean_trust":"Derbyshire Community Health Services NHS Foundation Trust","trust_id":221,"eu_staff_perc":0.6,"frontline_perc":0.6,"doctors_perc":2,"nurses_perc":0.5,"midwives_perc":0},{"id":2237,"lat":53.16827089,"lon":-1.59800604,"name":"Stancliffe House","trust":"Derbyshire_Community_Health_Services_NHS_Foundation_Trust","clean_trust":"Derbyshire Community Health Services NHS Foundation Trust","trust_id":221,"eu_staff_perc":0.6,"frontline_perc":0.6,"doctors_perc":2,"nurses_perc":0.5,"midwives_perc":0},{"id":2183,"lat":53.2571539,"lon":-1.3957113,"name":"Brimington Clinic","trust":"Derbyshire_Community_Health_Services_NHS_Foundation_Trust","clean_trust":"Derbyshire Community Health Services NHS Foundation Trust","trust_id":221,"eu_staff_perc":0.6,"frontline_perc":0.6,"doctors_perc":2,"nurses_perc":0.5,"midwives_perc":0},{"id":2191,"lat":53.27834664,"lon":-1.26249143,"name":"Clowne Health Centre","trust":"Derbyshire_Community_Health_Services_NHS_Foundation_Trust","clean_trust":"Derbyshire Community Health Services NHS Foundation Trust","trust_id":221,"eu_staff_perc":0.6,"frontline_perc":0.6,"doctors_perc":2,"nurses_perc":0.5,"midwives_perc":0},{"id":2199,"lat":52.9626462,"lon":-1.30252053,"name":"Eden Surgery","trust":"Derbyshire_Community_Health_Services_NHS_Foundation_Trust","clean_trust":"Derbyshire Community Health Services NHS Foundation Trust","trust_id":221,"eu_staff_perc":0.6,"frontline_perc":0.6,"doctors_perc":2,"nurses_perc":0.5,"midwives_perc":0},{"id":2207,"lat":53.18825617,"lon":-1.3533988,"name":"Holmewood Medical Practice","trust":"Derbyshire_Community_Health_Services_NHS_Foundation_Trust","clean_trust":"Derbyshire Community Health Services NHS Foundation Trust","trust_id":221,"eu_staff_perc":0.6,"frontline_perc":0.6,"doctors_perc":2,"nurses_perc":0.5,"midwives_perc":0},{"id":2166,"lat":53.26244231,"lon":-1.9212551,"name":"Cavendish Hospital","trust":"Derbyshire_Community_Health_Services_NHS_Foundation_Trust","clean_trust":"Derbyshire Community Health Services NHS Foundation Trust","trust_id":221,"eu_staff_perc":0.6,"frontline_perc":0.6,"doctors_perc":2,"nurses_perc":0.5,"midwives_perc":0},{"id":2175,"lat":53.150924,"lon":-1.57521558,"name":"Whitworth Hospital","trust":"Derbyshire_Community_Health_Services_NHS_Foundation_Trust","clean_trust":"Derbyshire Community Health Services NHS Foundation Trust","trust_id":221,"eu_staff_perc":0.6,"frontline_perc":0.6,"doctors_perc":2,"nurses_perc":0.5,"midwives_perc":0},{"id":2238,"lat":53.09755901,"lon":-1.3327457,"name":"Storthfield House","trust":"Derbyshire_Community_Health_Services_NHS_Foundation_Trust","clean_trust":"Derbyshire Community Health Services NHS Foundation Trust","trust_id":221,"eu_staff_perc":0.6,"frontline_perc":0.6,"doctors_perc":2,"nurses_perc":0.5,"midwives_perc":0},{"id":2246,"lat":52.912644,"lon":-1.46889836,"name":"The Walk In Centre","trust":"Derbyshire_Community_Health_Services_NHS_Foundation_Trust","clean_trust":"Derbyshire Community Health Services NHS Foundation Trust","trust_id":221,"eu_staff_perc":0.6,"frontline_perc":0.6,"doctors_perc":2,"nurses_perc":0.5,"midwives_perc":0},{"id":2254,"lat":53.150924,"lon":-1.57521558,"name":"Whitworth Minor Injury Unit","trust":"Derbyshire_Community_Health_Services_NHS_Foundation_Trust","clean_trust":"Derbyshire Community Health Services NHS Foundation Trust","trust_id":221,"eu_staff_perc":0.6,"frontline_perc":0.6,"doctors_perc":2,"nurses_perc":0.5,"midwives_perc":0},{"id":2214,"lat":53.13889543,"lon":-1.55349241,"name":"Matlock Clinic","trust":"Derbyshire_Community_Health_Services_NHS_Foundation_Trust","clean_trust":"Derbyshire Community Health Services NHS Foundation Trust","trust_id":221,"eu_staff_perc":0.6,"frontline_perc":0.6,"doctors_perc":2,"nurses_perc":0.5,"midwives_perc":0},{"id":2222,"lat":52.9051223,"lon":-1.47533978,"name":"Peartree Medical Centre","trust":"Derbyshire_Community_Health_Services_NHS_Foundation_Trust","clean_trust":"Derbyshire Community Health Services NHS Foundation Trust","trust_id":221,"eu_staff_perc":0.6,"frontline_perc":0.6,"doctors_perc":2,"nurses_perc":0.5,"midwives_perc":0},{"id":2230,"lat":53.2029167,"lon":-1.21689726,"name":"Shirebrook Social Services Area Sub Office","trust":"Derbyshire_Community_Health_Services_NHS_Foundation_Trust","clean_trust":"Derbyshire Community Health Services NHS Foundation Trust","trust_id":221,"eu_staff_perc":0.6,"frontline_perc":0.6,"doctors_perc":2,"nurses_perc":0.5,"midwives_perc":0},{"id":9539,"lat":53.26244231,"lon":-1.9212551,"name":"Cavendish Hospital","trust":"Derbyshire_Community_Health_Services_NHS_Foundation_Trust","clean_trust":"Derbyshire Community Health Services NHS Foundation Trust","trust_id":221,"eu_staff_perc":0.6,"frontline_perc":0.6,"doctors_perc":2,"nurses_perc":0.5,"midwives_perc":0},{"id":2184,"lat":53.25416115,"lon":-1.91755309,"name":"Buxton Health Centre","trust":"Derbyshire_Community_Health_Services_NHS_Foundation_Trust","clean_trust":"Derbyshire Community Health Services NHS Foundation Trust","trust_id":221,"eu_staff_perc":0.6,"frontline_perc":0.6,"doctors_perc":2,"nurses_perc":0.5,"midwives_perc":0},{"id":2192,"lat":53.26264828,"lon":-1.92010037,"name":"Cmht","trust":"Derbyshire_Community_Health_Services_NHS_Foundation_Trust","clean_trust":"Derbyshire Community Health Services NHS Foundation Trust","trust_id":221,"eu_staff_perc":0.6,"frontline_perc":0.6,"doctors_perc":2,"nurses_perc":0.5,"midwives_perc":0},{"id":10266,"lat":53.0183164,"lon":-1.48590947,"name":"Babington Hospital","trust":"Derbyshire_Community_Health_Services_NHS_Foundation_Trust","clean_trust":"Derbyshire Community Health Services NHS Foundation Trust","trust_id":221,"eu_staff_perc":0.6,"frontline_perc":0.6,"doctors_perc":2,"nurses_perc":0.5,"midwives_perc":0},{"id":2200,"lat":53.25749918,"lon":-1.89834486,"name":"Fairfield Sure Start Centre","trust":"Derbyshire_Community_Health_Services_NHS_Foundation_Trust","clean_trust":"Derbyshire Community Health Services NHS Foundation Trust","trust_id":221,"eu_staff_perc":0.6,"frontline_perc":0.6,"doctors_perc":2,"nurses_perc":0.5,"midwives_perc":0},{"id":2208,"lat":53.21966999,"lon":-1.43607687,"name":"Holywell House","trust":"Derbyshire_Community_Health_Services_NHS_Foundation_Trust","clean_trust":"Derbyshire Community Health Services NHS Foundation Trust","trust_id":221,"eu_staff_perc":0.6,"frontline_perc":0.6,"doctors_perc":2,"nurses_perc":0.5,"midwives_perc":0},{"id":2167,"lat":53.16793316,"lon":-1.40722656,"name":"Clay Cross Hospital","trust":"Derbyshire_Community_Health_Services_NHS_Foundation_Trust","clean_trust":"Derbyshire Community Health Services NHS Foundation Trust","trust_id":221,"eu_staff_perc":0.6,"frontline_perc":0.6,"doctors_perc":2,"nurses_perc":0.5,"midwives_perc":0},{"id":2176,"lat":53.09793105,"lon":-1.39397385,"name":"Alfreton Primary Care Centre","trust":"Derbyshire_Community_Health_Services_NHS_Foundation_Trust","clean_trust":"Derbyshire Community Health Services NHS Foundation Trust","trust_id":221,"eu_staff_perc":0.6,"frontline_perc":0.6,"doctors_perc":2,"nurses_perc":0.5,"midwives_perc":0},{"id":2239,"lat":53.30496821,"lon":-1.48854249,"name":"Stubley Medical Centre","trust":"Derbyshire_Community_Health_Services_NHS_Foundation_Trust","clean_trust":"Derbyshire Community Health Services NHS Foundation Trust","trust_id":221,"eu_staff_perc":0.6,"frontline_perc":0.6,"doctors_perc":2,"nurses_perc":0.5,"midwives_perc":0},{"id":2247,"lat":53.26644763,"lon":-1.44358813,"name":"Thornfield House","trust":"Derbyshire_Community_Health_Services_NHS_Foundation_Trust","clean_trust":"Derbyshire Community Health Services NHS Foundation Trust","trust_id":221,"eu_staff_perc":0.6,"frontline_perc":0.6,"doctors_perc":2,"nurses_perc":0.5,"midwives_perc":0},{"id":2255,"lat":52.85249154,"lon":-1.56514366,"name":"Willington Surgery","trust":"Derbyshire_Community_Health_Services_NHS_Foundation_Trust","clean_trust":"Derbyshire Community Health Services NHS Foundation Trust","trust_id":221,"eu_staff_perc":0.6,"frontline_perc":0.6,"doctors_perc":2,"nurses_perc":0.5,"midwives_perc":0},{"id":2215,"lat":52.82171155,"lon":-1.42954637,"name":"Melbourne Medical Centre","trust":"Derbyshire_Community_Health_Services_NHS_Foundation_Trust","clean_trust":"Derbyshire Community Health Services NHS Foundation Trust","trust_id":221,"eu_staff_perc":0.6,"frontline_perc":0.6,"doctors_perc":2,"nurses_perc":0.5,"midwives_perc":0},{"id":2223,"lat":52.78160275,"lon":-1.54932982,"name":"Prestwood House Surgery","trust":"Derbyshire_Community_Health_Services_NHS_Foundation_Trust","clean_trust":"Derbyshire Community Health Services NHS Foundation Trust","trust_id":221,"eu_staff_perc":0.6,"frontline_perc":0.6,"doctors_perc":2,"nurses_perc":0.5,"midwives_perc":0},{"id":2231,"lat":52.8771652,"lon":-1.49412329,"name":"Sinfin Health Centre","trust":"Derbyshire_Community_Health_Services_NHS_Foundation_Trust","clean_trust":"Derbyshire Community Health Services NHS Foundation Trust","trust_id":221,"eu_staff_perc":0.6,"frontline_perc":0.6,"doctors_perc":2,"nurses_perc":0.5,"midwives_perc":0},{"id":2177,"lat":0,"lon":0,"name":"Amberley House","trust":"Derbyshire_Community_Health_Services_NHS_Foundation_Trust","clean_trust":"Derbyshire Community Health Services NHS Foundation Trust","trust_id":221,"eu_staff_perc":0.6,"frontline_perc":0.6,"doctors_perc":2,"nurses_perc":0.5,"midwives_perc":0},{"id":2185,"lat":53.2481875,"lon":-1.908265,"name":"Buxton Minor Injury Unit","trust":"Derbyshire_Community_Health_Services_NHS_Foundation_Trust","clean_trust":"Derbyshire Community Health Services NHS Foundation Trust","trust_id":221,"eu_staff_perc":0.6,"frontline_perc":0.6,"doctors_perc":2,"nurses_perc":0.5,"midwives_perc":0},{"id":2193,"lat":52.89394457,"lon":-1.44518348,"name":"Coleman Health Centre","trust":"Derbyshire_Community_Health_Services_NHS_Foundation_Trust","clean_trust":"Derbyshire Community Health Services NHS Foundation Trust","trust_id":221,"eu_staff_perc":0.6,"frontline_perc":0.6,"doctors_perc":2,"nurses_perc":0.5,"midwives_perc":0},{"id":2201,"lat":52.9686324,"lon":-1.3081266,"name":"Gladstone House Surgery","trust":"Derbyshire_Community_Health_Services_NHS_Foundation_Trust","clean_trust":"Derbyshire Community Health Services NHS Foundation Trust","trust_id":221,"eu_staff_perc":0.6,"frontline_perc":0.6,"doctors_perc":2,"nurses_perc":0.5,"midwives_perc":0},{"id":2209,"lat":53.34944075,"lon":-1.74506795,"name":"Hope Clinic","trust":"Derbyshire_Community_Health_Services_NHS_Foundation_Trust","clean_trust":"Derbyshire Community Health Services NHS Foundation Trust","trust_id":221,"eu_staff_perc":0.6,"frontline_perc":0.6,"doctors_perc":2,"nurses_perc":0.5,"midwives_perc":0},{"id":2168,"lat":52.98816146,"lon":-1.32075357,"name":"Ilkeston Community Hospital","trust":"Derbyshire_Community_Health_Services_NHS_Foundation_Trust","clean_trust":"Derbyshire Community Health Services NHS Foundation Trust","trust_id":221,"eu_staff_perc":0.6,"frontline_perc":0.6,"doctors_perc":2,"nurses_perc":0.5,"midwives_perc":0},{"id":7693,"lat":53.36781505,"lon":-1.32197939,"name":"Rotherham Adult Mental Health Service - Access Team  including Crisis Resolution Service","trust":"Rotherham_Doncaster_and_South_Humber_NHS_Foundation_Trust","clean_trust":"Rotherham Doncaster and South Humber NHS Foundation Trust","trust_id":222,"eu_staff_perc":0.7,"frontline_perc":0.5,"doctors_perc":2.9,"nurses_perc":0.4,"midwives_perc":0},{"id":7701,"lat":53.6075011,"lon":-0.95331344,"name":"Doncaster Cmht East","trust":"Rotherham_Doncaster_and_South_Humber_NHS_Foundation_Trust","clean_trust":"Rotherham Doncaster and South Humber NHS Foundation Trust","trust_id":222,"eu_staff_perc":0.7,"frontline_perc":0.5,"doctors_perc":2.9,"nurses_perc":0.4,"midwives_perc":0},{"id":7709,"lat":53.48267071,"lon":-1.23806753,"name":"Doncaster Learning Disabilities Home 35","trust":"Rotherham_Doncaster_and_South_Humber_NHS_Foundation_Trust","clean_trust":"Rotherham Doncaster and South Humber NHS Foundation Trust","trust_id":222,"eu_staff_perc":0.7,"frontline_perc":0.5,"doctors_perc":2.9,"nurses_perc":0.4,"midwives_perc":0},{"id":7716,"lat":53.49746809,"lon":-1.14655547,"name":"Doncaster Learning Disabilities Services","trust":"Rotherham_Doncaster_and_South_Humber_NHS_Foundation_Trust","clean_trust":"Rotherham Doncaster and South Humber NHS Foundation Trust","trust_id":222,"eu_staff_perc":0.7,"frontline_perc":0.5,"doctors_perc":2.9,"nurses_perc":0.4,"midwives_perc":0},{"id":7724,"lat":53.54545088,"lon":-1.14673777,"name":"Doncaster Substance Misuse Service - Shared Care West","trust":"Rotherham_Doncaster_and_South_Humber_NHS_Foundation_Trust","clean_trust":"Rotherham Doncaster and South Humber NHS Foundation Trust","trust_id":222,"eu_staff_perc":0.7,"frontline_perc":0.5,"doctors_perc":2.9,"nurses_perc":0.4,"midwives_perc":0},{"id":7732,"lat":53.5895317,"lon":-0.65063175,"name":"North Lincs CAMHS - Community Services","trust":"Rotherham_Doncaster_and_South_Humber_NHS_Foundation_Trust","clean_trust":"Rotherham Doncaster and South Humber NHS Foundation Trust","trust_id":222,"eu_staff_perc":0.7,"frontline_perc":0.5,"doctors_perc":2.9,"nurses_perc":0.4,"midwives_perc":0},{"id":7740,"lat":53.43256461,"lon":-1.38934381,"name":"Rotherham CAMHS - Community Services","trust":"Rotherham_Doncaster_and_South_Humber_NHS_Foundation_Trust","clean_trust":"Rotherham Doncaster and South Humber NHS Foundation Trust","trust_id":222,"eu_staff_perc":0.7,"frontline_perc":0.5,"doctors_perc":2.9,"nurses_perc":0.4,"midwives_perc":0},{"id":7748,"lat":53.39645586,"lon":-1.26031636,"name":"Rotherham Learning Disabilities Home 3","trust":"Rotherham_Doncaster_and_South_Humber_NHS_Foundation_Trust","clean_trust":"Rotherham Doncaster and South Humber NHS Foundation Trust","trust_id":222,"eu_staff_perc":0.7,"frontline_perc":0.5,"doctors_perc":2.9,"nurses_perc":0.4,"midwives_perc":0},{"id":7756,"lat":53.42586655,"lon":-1.35651224,"name":"Rotherham Substance Misuse Service - Kts","trust":"Rotherham_Doncaster_and_South_Humber_NHS_Foundation_Trust","clean_trust":"Rotherham Doncaster and South Humber NHS Foundation Trust","trust_id":222,"eu_staff_perc":0.7,"frontline_perc":0.5,"doctors_perc":2.9,"nurses_perc":0.4,"midwives_perc":0},{"id":7702,"lat":53.49675542,"lon":-1.18351721,"name":"Doncaster Community Mental Health Team for Older People","trust":"Rotherham_Doncaster_and_South_Humber_NHS_Foundation_Trust","clean_trust":"Rotherham Doncaster and South Humber NHS Foundation Trust","trust_id":222,"eu_staff_perc":0.7,"frontline_perc":0.5,"doctors_perc":2.9,"nurses_perc":0.4,"midwives_perc":0},{"id":7717,"lat":53.49746809,"lon":-1.14655547,"name":"Doncaster Mental Health Services - Adhd Clinic","trust":"Rotherham_Doncaster_and_South_Humber_NHS_Foundation_Trust","clean_trust":"Rotherham Doncaster and South Humber NHS Foundation Trust","trust_id":222,"eu_staff_perc":0.7,"frontline_perc":0.5,"doctors_perc":2.9,"nurses_perc":0.4,"midwives_perc":0},{"id":7725,"lat":53.60008003,"lon":-1.02394631,"name":"Doncaster Substance Misuse Service - Stainforth Drugs Project","trust":"Rotherham_Doncaster_and_South_Humber_NHS_Foundation_Trust","clean_trust":"Rotherham Doncaster and South Humber NHS Foundation Trust","trust_id":222,"eu_staff_perc":0.7,"frontline_perc":0.5,"doctors_perc":2.9,"nurses_perc":0.4,"midwives_perc":0},{"id":7733,"lat":53.56707623,"lon":-0.65214691,"name":"North Lincs Cmht - Options For Employment","trust":"Rotherham_Doncaster_and_South_Humber_NHS_Foundation_Trust","clean_trust":"Rotherham Doncaster and South Humber NHS Foundation Trust","trust_id":222,"eu_staff_perc":0.7,"frontline_perc":0.5,"doctors_perc":2.9,"nurses_perc":0.4,"midwives_perc":0},{"id":7741,"lat":53.48865378,"lon":-1.3116145,"name":"Rotherham Cmht North","trust":"Rotherham_Doncaster_and_South_Humber_NHS_Foundation_Trust","clean_trust":"Rotherham Doncaster and South Humber NHS Foundation Trust","trust_id":222,"eu_staff_perc":0.7,"frontline_perc":0.5,"doctors_perc":2.9,"nurses_perc":0.4,"midwives_perc":0},{"id":7749,"lat":53.36781505,"lon":-1.32197939,"name":"Rotherham Mental Health - Assertive Outreach Services","trust":"Rotherham_Doncaster_and_South_Humber_NHS_Foundation_Trust","clean_trust":"Rotherham Doncaster and South Humber NHS Foundation Trust","trust_id":222,"eu_staff_perc":0.7,"frontline_perc":0.5,"doctors_perc":2.9,"nurses_perc":0.4,"midwives_perc":0},{"id":7757,"lat":53.5936334,"lon":-0.64213032,"name":"Scunthorpe Substance Misuse Service - The Junction","trust":"Rotherham_Doncaster_and_South_Humber_NHS_Foundation_Trust","clean_trust":"Rotherham Doncaster and South Humber NHS Foundation Trust","trust_id":222,"eu_staff_perc":0.7,"frontline_perc":0.5,"doctors_perc":2.9,"nurses_perc":0.4,"midwives_perc":0},{"id":7695,"lat":53.49616943,"lon":-1.14469726,"name":"Tickhill Road Hospital","trust":"Rotherham_Doncaster_and_South_Humber_NHS_Foundation_Trust","clean_trust":"Rotherham Doncaster and South Humber NHS Foundation Trust","trust_id":222,"eu_staff_perc":0.7,"frontline_perc":0.5,"doctors_perc":2.9,"nurses_perc":0.4,"midwives_perc":0},{"id":7703,"lat":53.51805657,"lon":-1.11379092,"name":"Doncaster Dcis - (Otw)","trust":"Rotherham_Doncaster_and_South_Humber_NHS_Foundation_Trust","clean_trust":"Rotherham Doncaster and South Humber NHS Foundation Trust","trust_id":222,"eu_staff_perc":0.7,"frontline_perc":0.5,"doctors_perc":2.9,"nurses_perc":0.4,"midwives_perc":0},{"id":7718,"lat":53.49746809,"lon":-1.14655547,"name":"Doncaster Mental Health Services For Older People","trust":"Rotherham_Doncaster_and_South_Humber_NHS_Foundation_Trust","clean_trust":"Rotherham Doncaster and South Humber NHS Foundation Trust","trust_id":222,"eu_staff_perc":0.7,"frontline_perc":0.5,"doctors_perc":2.9,"nurses_perc":0.4,"midwives_perc":0},{"id":7726,"lat":53.50297527,"lon":-1.16221973,"name":"Doncaster Substance Misuse Service Gp Shared Care Clinic","trust":"Rotherham_Doncaster_and_South_Humber_NHS_Foundation_Trust","clean_trust":"Rotherham Doncaster and South Humber NHS Foundation Trust","trust_id":222,"eu_staff_perc":0.7,"frontline_perc":0.5,"doctors_perc":2.9,"nurses_perc":0.4,"midwives_perc":0},{"id":7734,"lat":53.56833531,"lon":-0.65379815,"name":"North Lincs Early Intervention Team","trust":"Rotherham_Doncaster_and_South_Humber_NHS_Foundation_Trust","clean_trust":"Rotherham Doncaster and South Humber NHS Foundation Trust","trust_id":222,"eu_staff_perc":0.7,"frontline_perc":0.5,"doctors_perc":2.9,"nurses_perc":0.4,"midwives_perc":0},{"id":7742,"lat":53.42979994,"lon":-1.33289874,"name":"Rotherham Community Learning Disabilities Service","trust":"Rotherham_Doncaster_and_South_Humber_NHS_Foundation_Trust","clean_trust":"Rotherham Doncaster and South Humber NHS Foundation Trust","trust_id":222,"eu_staff_perc":0.7,"frontline_perc":0.5,"doctors_perc":2.9,"nurses_perc":0.4,"midwives_perc":0},{"id":7750,"lat":53.42915726,"lon":-1.35834385,"name":"Rotherham Mental Health Services - Criminal Justice Team","trust":"Rotherham_Doncaster_and_South_Humber_NHS_Foundation_Trust","clean_trust":"Rotherham Doncaster and South Humber NHS Foundation Trust","trust_id":222,"eu_staff_perc":0.7,"frontline_perc":0.5,"doctors_perc":2.9,"nurses_perc":0.4,"midwives_perc":0},{"id":7758,"lat":53.5000483,"lon":-1.1491419,"name":"St Johns Hospice","trust":"Rotherham_Doncaster_and_South_Humber_NHS_Foundation_Trust","clean_trust":"Rotherham Doncaster and South Humber NHS Foundation Trust","trust_id":222,"eu_staff_perc":0.7,"frontline_perc":0.5,"doctors_perc":2.9,"nurses_perc":0.4,"midwives_perc":0},{"id":7710,"lat":53.51556341,"lon":-1.15557246,"name":"Doncaster Learning Disabilities Home 36","trust":"Rotherham_Doncaster_and_South_Humber_NHS_Foundation_Trust","clean_trust":"Rotherham Doncaster and South Humber NHS Foundation Trust","trust_id":222,"eu_staff_perc":0.7,"frontline_perc":0.5,"doctors_perc":2.9,"nurses_perc":0.4,"midwives_perc":0},{"id":7696,"lat":53.49746809,"lon":-1.14655547,"name":"Tickhill Road Hospital","trust":"Rotherham_Doncaster_and_South_Humber_NHS_Foundation_Trust","clean_trust":"Rotherham Doncaster and South Humber NHS Foundation Trust","trust_id":222,"eu_staff_perc":0.7,"frontline_perc":0.5,"doctors_perc":2.9,"nurses_perc":0.4,"midwives_perc":0},{"id":7704,"lat":53.56508766,"lon":-1.15386188,"name":"Doncaster Dcis - (Otw) Bentley Myplace","trust":"Rotherham_Doncaster_and_South_Humber_NHS_Foundation_Trust","clean_trust":"Rotherham Doncaster and South Humber NHS Foundation Trust","trust_id":222,"eu_staff_perc":0.7,"frontline_perc":0.5,"doctors_perc":2.9,"nurses_perc":0.4,"midwives_perc":0},{"id":7719,"lat":53.55720071,"lon":-1.14823747,"name":"Doncaster Mental Health Services Rehab & Recovery (Cherry Grange)","trust":"Rotherham_Doncaster_and_South_Humber_NHS_Foundation_Trust","clean_trust":"Rotherham Doncaster and South Humber NHS Foundation Trust","trust_id":222,"eu_staff_perc":0.7,"frontline_perc":0.5,"doctors_perc":2.9,"nurses_perc":0.4,"midwives_perc":0},{"id":7727,"lat":53.4954249,"lon":-1.2755538,"name":"Doncaster Substance Misuse Service Gp Shared Care Clinic","trust":"Rotherham_Doncaster_and_South_Humber_NHS_Foundation_Trust","clean_trust":"Rotherham Doncaster and South Humber NHS Foundation Trust","trust_id":222,"eu_staff_perc":0.7,"frontline_perc":0.5,"doctors_perc":2.9,"nurses_perc":0.4,"midwives_perc":0},{"id":7735,"lat":53.59279449,"lon":-0.64504311,"name":"North Lincs IAPT","trust":"Rotherham_Doncaster_and_South_Humber_NHS_Foundation_Trust","clean_trust":"Rotherham Doncaster and South Humber NHS Foundation Trust","trust_id":222,"eu_staff_perc":0.7,"frontline_perc":0.5,"doctors_perc":2.9,"nurses_perc":0.4,"midwives_perc":0},{"id":7743,"lat":53.40622902,"lon":-1.36882723,"name":"Rotherham Community Mental Health Team","trust":"Rotherham_Doncaster_and_South_Humber_NHS_Foundation_Trust","clean_trust":"Rotherham Doncaster and South Humber NHS Foundation Trust","trust_id":222,"eu_staff_perc":0.7,"frontline_perc":0.5,"doctors_perc":2.9,"nurses_perc":0.4,"midwives_perc":0},{"id":7751,"lat":53.41397222,"lon":-1.34288045,"name":"Rotherham Mental Health Services - Hawthorne Day Hospital","trust":"Rotherham_Doncaster_and_South_Humber_NHS_Foundation_Trust","clean_trust":"Rotherham Doncaster and South Humber NHS Foundation Trust","trust_id":222,"eu_staff_perc":0.7,"frontline_perc":0.5,"doctors_perc":2.9,"nurses_perc":0.4,"midwives_perc":0},{"id":7759,"lat":53.49746809,"lon":-1.14655547,"name":"Uncoded Prescriptions - Dash","trust":"Rotherham_Doncaster_and_South_Humber_NHS_Foundation_Trust","clean_trust":"Rotherham Doncaster and South Humber NHS Foundation Trust","trust_id":222,"eu_staff_perc":0.7,"frontline_perc":0.5,"doctors_perc":2.9,"nurses_perc":0.4,"midwives_perc":0},{"id":7711,"lat":53.48749673,"lon":-1.02510052,"name":"Doncaster Learning Disabilities Home 38","trust":"Rotherham_Doncaster_and_South_Humber_NHS_Foundation_Trust","clean_trust":"Rotherham Doncaster and South Humber NHS Foundation Trust","trust_id":222,"eu_staff_perc":0.7,"frontline_perc":0.5,"doctors_perc":2.9,"nurses_perc":0.4,"midwives_perc":0},{"id":7697,"lat":53.5216894,"lon":-1.1249673,"name":"Children, Young People and Families Doncaster Community Integrated ","trust":"Rotherham_Doncaster_and_South_Humber_NHS_Foundation_Trust","clean_trust":"Rotherham Doncaster and South Humber NHS Foundation Trust","trust_id":222,"eu_staff_perc":0.7,"frontline_perc":0.5,"doctors_perc":2.9,"nurses_perc":0.4,"midwives_perc":0},{"id":7705,"lat":53.49746809,"lon":-1.14655547,"name":"Doncaster Early Intervention Team","trust":"Rotherham_Doncaster_and_South_Humber_NHS_Foundation_Trust","clean_trust":"Rotherham Doncaster and South Humber NHS Foundation Trust","trust_id":222,"eu_staff_perc":0.7,"frontline_perc":0.5,"doctors_perc":2.9,"nurses_perc":0.4,"midwives_perc":0},{"id":7720,"lat":53.49764693,"lon":-1.17719885,"name":"Doncaster Recovery Team","trust":"Rotherham_Doncaster_and_South_Humber_NHS_Foundation_Trust","clean_trust":"Rotherham Doncaster and South Humber NHS Foundation Trust","trust_id":222,"eu_staff_perc":0.7,"frontline_perc":0.5,"doctors_perc":2.9,"nurses_perc":0.4,"midwives_perc":0},{"id":7728,"lat":53.56348387,"lon":-0.09450125,"name":"Grimsby Substance Misuse Service - Junction 2","trust":"Rotherham_Doncaster_and_South_Humber_NHS_Foundation_Trust","clean_trust":"Rotherham Doncaster and South Humber NHS Foundation Trust","trust_id":222,"eu_staff_perc":0.7,"frontline_perc":0.5,"doctors_perc":2.9,"nurses_perc":0.4,"midwives_perc":0},{"id":7736,"lat":53.58949902,"lon":-0.68565349,"name":"North Lincs Older People's Mental Health Services","trust":"Rotherham_Doncaster_and_South_Humber_NHS_Foundation_Trust","clean_trust":"Rotherham Doncaster and South Humber NHS Foundation Trust","trust_id":222,"eu_staff_perc":0.7,"frontline_perc":0.5,"doctors_perc":2.9,"nurses_perc":0.4,"midwives_perc":0},{"id":7744,"lat":53.36781505,"lon":-1.32197939,"name":"Rotherham Early Intervention Team","trust":"Rotherham_Doncaster_and_South_Humber_NHS_Foundation_Trust","clean_trust":"Rotherham Doncaster and South Humber NHS Foundation Trust","trust_id":222,"eu_staff_perc":0.7,"frontline_perc":0.5,"doctors_perc":2.9,"nurses_perc":0.4,"midwives_perc":0},{"id":7752,"lat":53.42315489,"lon":-1.35372411,"name":"Rotherham Mental Health Services - Home Treatment Team","trust":"Rotherham_Doncaster_and_South_Humber_NHS_Foundation_Trust","clean_trust":"Rotherham Doncaster and South Humber NHS Foundation Trust","trust_id":222,"eu_staff_perc":0.7,"frontline_perc":0.5,"doctors_perc":2.9,"nurses_perc":0.4,"midwives_perc":0},{"id":7712,"lat":53.53246908,"lon":-1.09983622,"name":"Doncaster Learning Disabilities Home 39","trust":"Rotherham_Doncaster_and_South_Humber_NHS_Foundation_Trust","clean_trust":"Rotherham Doncaster and South Humber NHS Foundation Trust","trust_id":222,"eu_staff_perc":0.7,"frontline_perc":0.5,"doctors_perc":2.9,"nurses_perc":0.4,"midwives_perc":0},{"id":7698,"lat":53.49800475,"lon":-1.15249928,"name":"Doncaster - Stroke Outreach","trust":"Rotherham_Doncaster_and_South_Humber_NHS_Foundation_Trust","clean_trust":"Rotherham Doncaster and South Humber NHS Foundation Trust","trust_id":222,"eu_staff_perc":0.7,"frontline_perc":0.5,"doctors_perc":2.9,"nurses_perc":0.4,"midwives_perc":0},{"id":7706,"lat":53.52241932,"lon":-1.13150984,"name":"Doncaster IAPT","trust":"Rotherham_Doncaster_and_South_Humber_NHS_Foundation_Trust","clean_trust":"Rotherham Doncaster and South Humber NHS Foundation Trust","trust_id":222,"eu_staff_perc":0.7,"frontline_perc":0.5,"doctors_perc":2.9,"nurses_perc":0.4,"midwives_perc":0},{"id":7721,"lat":53.52383526,"lon":-1.12709519,"name":"Doncaster Substance Misuse Service","trust":"Rotherham_Doncaster_and_South_Humber_NHS_Foundation_Trust","clean_trust":"Rotherham Doncaster and South Humber NHS Foundation Trust","trust_id":222,"eu_staff_perc":0.7,"frontline_perc":0.5,"doctors_perc":2.9,"nurses_perc":0.4,"midwives_perc":0},{"id":7729,"lat":53.49520788,"lon":-1.29794203,"name":"Mexborough Children's Community Services","trust":"Rotherham_Doncaster_and_South_Humber_NHS_Foundation_Trust","clean_trust":"Rotherham Doncaster and South Humber NHS Foundation Trust","trust_id":222,"eu_staff_perc":0.7,"frontline_perc":0.5,"doctors_perc":2.9,"nurses_perc":0.4,"midwives_perc":0},{"id":7737,"lat":53.56695335,"lon":-0.61852273,"name":"Nth Lincs - Ot (Community)","trust":"Rotherham_Doncaster_and_South_Humber_NHS_Foundation_Trust","clean_trust":"Rotherham Doncaster and South Humber NHS Foundation Trust","trust_id":222,"eu_staff_perc":0.7,"frontline_perc":0.5,"doctors_perc":2.9,"nurses_perc":0.4,"midwives_perc":0},{"id":7745,"lat":53.43021447,"lon":-1.34899782,"name":"Rotherham IAPT","trust":"Rotherham_Doncaster_and_South_Humber_NHS_Foundation_Trust","clean_trust":"Rotherham Doncaster and South Humber NHS Foundation Trust","trust_id":222,"eu_staff_perc":0.7,"frontline_perc":0.5,"doctors_perc":2.9,"nurses_perc":0.4,"midwives_perc":0},{"id":7753,"lat":53.43033606,"lon":-1.37727496,"name":"Rotherham Mh Services - Recovery Team","trust":"Rotherham_Doncaster_and_South_Humber_NHS_Foundation_Trust","clean_trust":"Rotherham Doncaster and South Humber NHS Foundation Trust","trust_id":222,"eu_staff_perc":0.7,"frontline_perc":0.5,"doctors_perc":2.9,"nurses_perc":0.4,"midwives_perc":0},{"id":7713,"lat":53.47893451,"lon":-1.19733015,"name":"Doncaster Learning Disabilities Home 41","trust":"Rotherham_Doncaster_and_South_Humber_NHS_Foundation_Trust","clean_trust":"Rotherham Doncaster and South Humber NHS Foundation Trust","trust_id":222,"eu_staff_perc":0.7,"frontline_perc":0.5,"doctors_perc":2.9,"nurses_perc":0.4,"midwives_perc":0},{"id":7691,"lat":53.49746809,"lon":-1.14655547,"name":"Doncaster Adult Mental Health Service - Access Team including Crisis Resolution Service","trust":"Rotherham_Doncaster_and_South_Humber_NHS_Foundation_Trust","clean_trust":"Rotherham Doncaster and South Humber NHS Foundation Trust","trust_id":222,"eu_staff_perc":0.7,"frontline_perc":0.5,"doctors_perc":2.9,"nurses_perc":0.4,"midwives_perc":0},{"id":7699,"lat":53.52383526,"lon":-1.12709519,"name":"Doncaster Aspire - Drug & Alcohol Service","trust":"Rotherham_Doncaster_and_South_Humber_NHS_Foundation_Trust","clean_trust":"Rotherham Doncaster and South Humber NHS Foundation Trust","trust_id":222,"eu_staff_perc":0.7,"frontline_perc":0.5,"doctors_perc":2.9,"nurses_perc":0.4,"midwives_perc":0},{"id":7707,"lat":53.53110914,"lon":-1.09472048,"name":"Doncaster Intensive Community Therapies Team","trust":"Rotherham_Doncaster_and_South_Humber_NHS_Foundation_Trust","clean_trust":"Rotherham Doncaster and South Humber NHS Foundation Trust","trust_id":222,"eu_staff_perc":0.7,"frontline_perc":0.5,"doctors_perc":2.9,"nurses_perc":0.4,"midwives_perc":0},{"id":7722,"lat":53.58296058,"lon":-1.18152501,"name":"Doncaster Substance Misuse Service - Gp Shared Care Clinic","trust":"Rotherham_Doncaster_and_South_Humber_NHS_Foundation_Trust","clean_trust":"Rotherham Doncaster and South Humber NHS Foundation Trust","trust_id":222,"eu_staff_perc":0.7,"frontline_perc":0.5,"doctors_perc":2.9,"nurses_perc":0.4,"midwives_perc":0},{"id":7730,"lat":53.59236519,"lon":-0.65239992,"name":"North Lincolnshire Community Learning Disabilities Services","trust":"Rotherham_Doncaster_and_South_Humber_NHS_Foundation_Trust","clean_trust":"Rotherham Doncaster and South Humber NHS Foundation Trust","trust_id":222,"eu_staff_perc":0.7,"frontline_perc":0.5,"doctors_perc":2.9,"nurses_perc":0.4,"midwives_perc":0},{"id":7738,"lat":53.56833531,"lon":-0.65379815,"name":"Nth Lincs Cmht - Adult","trust":"Rotherham_Doncaster_and_South_Humber_NHS_Foundation_Trust","clean_trust":"Rotherham Doncaster and South Humber NHS Foundation Trust","trust_id":222,"eu_staff_perc":0.7,"frontline_perc":0.5,"doctors_perc":2.9,"nurses_perc":0.4,"midwives_perc":0},{"id":7746,"lat":53.43570133,"lon":-1.33861668,"name":"Rotherham Learning Disabilities Home 1","trust":"Rotherham_Doncaster_and_South_Humber_NHS_Foundation_Trust","clean_trust":"Rotherham Doncaster and South Humber NHS Foundation Trust","trust_id":222,"eu_staff_perc":0.7,"frontline_perc":0.5,"doctors_perc":2.9,"nurses_perc":0.4,"midwives_perc":0},{"id":7754,"lat":53.4238097,"lon":-1.2050663,"name":"Rotherham Sub Misuse Serv - The Garage","trust":"Rotherham_Doncaster_and_South_Humber_NHS_Foundation_Trust","clean_trust":"Rotherham Doncaster and South Humber NHS Foundation Trust","trust_id":222,"eu_staff_perc":0.7,"frontline_perc":0.5,"doctors_perc":2.9,"nurses_perc":0.4,"midwives_perc":0},{"id":7714,"lat":53.57941469,"lon":-1.00209856,"name":"Doncaster Learning Disabilities Home 42","trust":"Rotherham_Doncaster_and_South_Humber_NHS_Foundation_Trust","clean_trust":"Rotherham Doncaster and South Humber NHS Foundation Trust","trust_id":222,"eu_staff_perc":0.7,"frontline_perc":0.5,"doctors_perc":2.9,"nurses_perc":0.4,"midwives_perc":0},{"id":7692,"lat":53.56822664,"lon":-0.63773211,"name":"North Lincs Adult Mental Health Service - Access Team  including Crisis Resolution Service","trust":"Rotherham_Doncaster_and_South_Humber_NHS_Foundation_Trust","clean_trust":"Rotherham Doncaster and South Humber NHS Foundation Trust","trust_id":222,"eu_staff_perc":0.7,"frontline_perc":0.5,"doctors_perc":2.9,"nurses_perc":0.4,"midwives_perc":0},{"id":7700,"lat":53.50228894,"lon":-1.12212531,"name":"Doncaster CAMHS - Community Services","trust":"Rotherham_Doncaster_and_South_Humber_NHS_Foundation_Trust","clean_trust":"Rotherham Doncaster and South Humber NHS Foundation Trust","trust_id":222,"eu_staff_perc":0.7,"frontline_perc":0.5,"doctors_perc":2.9,"nurses_perc":0.4,"midwives_perc":0},{"id":7708,"lat":53.49746809,"lon":-1.14655547,"name":"Doncaster Learning Disabilities - Assessment & Treatment Unit","trust":"Rotherham_Doncaster_and_South_Humber_NHS_Foundation_Trust","clean_trust":"Rotherham Doncaster and South Humber NHS Foundation Trust","trust_id":222,"eu_staff_perc":0.7,"frontline_perc":0.5,"doctors_perc":2.9,"nurses_perc":0.4,"midwives_perc":0},{"id":7723,"lat":53.50627174,"lon":-1.15467149,"name":"Doncaster Substance Misuse Service - New Beginnings","trust":"Rotherham_Doncaster_and_South_Humber_NHS_Foundation_Trust","clean_trust":"Rotherham Doncaster and South Humber NHS Foundation Trust","trust_id":222,"eu_staff_perc":0.7,"frontline_perc":0.5,"doctors_perc":2.9,"nurses_perc":0.4,"midwives_perc":0},{"id":7731,"lat":53.56822664,"lon":-0.63773211,"name":"North Lincs - Great Oaks Inpatient Unit","trust":"Rotherham_Doncaster_and_South_Humber_NHS_Foundation_Trust","clean_trust":"Rotherham Doncaster and South Humber NHS Foundation Trust","trust_id":222,"eu_staff_perc":0.7,"frontline_perc":0.5,"doctors_perc":2.9,"nurses_perc":0.4,"midwives_perc":0},{"id":7739,"lat":0,"lon":0,"name":"Nth Lincs Psychological Therapies 2","trust":"Rotherham_Doncaster_and_South_Humber_NHS_Foundation_Trust","clean_trust":"Rotherham Doncaster and South Humber NHS Foundation Trust","trust_id":222,"eu_staff_perc":0.7,"frontline_perc":0.5,"doctors_perc":2.9,"nurses_perc":0.4,"midwives_perc":0},{"id":7747,"lat":53.49423898,"lon":-1.33442055,"name":"Rotherham Learning Disabilities Home 2","trust":"Rotherham_Doncaster_and_South_Humber_NHS_Foundation_Trust","clean_trust":"Rotherham Doncaster and South Humber NHS Foundation Trust","trust_id":222,"eu_staff_perc":0.7,"frontline_perc":0.5,"doctors_perc":2.9,"nurses_perc":0.4,"midwives_perc":0},{"id":7755,"lat":53.43776203,"lon":-1.35236469,"name":"Rotherham Substance Misuse Service - Clearways","trust":"Rotherham_Doncaster_and_South_Humber_NHS_Foundation_Trust","clean_trust":"Rotherham Doncaster and South Humber NHS Foundation Trust","trust_id":222,"eu_staff_perc":0.7,"frontline_perc":0.5,"doctors_perc":2.9,"nurses_perc":0.4,"midwives_perc":0},{"id":7715,"lat":53.49368307,"lon":-1.15657986,"name":"Doncaster Learning Disabilities Home 47","trust":"Rotherham_Doncaster_and_South_Humber_NHS_Foundation_Trust","clean_trust":"Rotherham Doncaster and South Humber NHS Foundation Trust","trust_id":222,"eu_staff_perc":0.7,"frontline_perc":0.5,"doctors_perc":2.9,"nurses_perc":0.4,"midwives_perc":0},{"id":6256,"lat":53.03947337,"lon":-2.2386875,"name":"Lyme Brook Mental Health Centre","trust":"North_Staffordshire_Combined_Healthcare_NHS_Trust","clean_trust":"North Staffordshire Combined Healthcare NHS Trust","trust_id":218,"eu_staff_perc":0.8,"frontline_perc":0.8,"doctors_perc":4.6,"nurses_perc":0.2,"midwives_perc":0},{"id":6264,"lat":52.6910921,"lon":-2.03244711,"name":"One Recovery Cannock","trust":"North_Staffordshire_Combined_Healthcare_NHS_Trust","clean_trust":"North Staffordshire Combined Healthcare NHS Trust","trust_id":218,"eu_staff_perc":0.8,"frontline_perc":0.8,"doctors_perc":4.6,"nurses_perc":0.2,"midwives_perc":0},{"id":6272,"lat":53.01373457,"lon":-2.2263827,"name":"Ryecroft Medical Centre","trust":"North_Staffordshire_Combined_Healthcare_NHS_Trust","clean_trust":"North Staffordshire Combined Healthcare NHS Trust","trust_id":218,"eu_staff_perc":0.8,"frontline_perc":0.8,"doctors_perc":4.6,"nurses_perc":0.2,"midwives_perc":0},{"id":6240,"lat":52.97200247,"lon":-2.15656483,"name":"Blurton Health Centre","trust":"North_Staffordshire_Combined_Healthcare_NHS_Trust","clean_trust":"North Staffordshire Combined Healthcare NHS Trust","trust_id":218,"eu_staff_perc":0.8,"frontline_perc":0.8,"doctors_perc":4.6,"nurses_perc":0.2,"midwives_perc":0},{"id":6248,"lat":52.96865424,"lon":-2.16629052,"name":"Health Records Department","trust":"North_Staffordshire_Combined_Healthcare_NHS_Trust","clean_trust":"North Staffordshire Combined Healthcare NHS Trust","trust_id":218,"eu_staff_perc":0.8,"frontline_perc":0.8,"doctors_perc":4.6,"nurses_perc":0.2,"midwives_perc":0},{"id":6257,"lat":52.98965701,"lon":-2.12664143,"name":"Marrow House","trust":"North_Staffordshire_Combined_Healthcare_NHS_Trust","clean_trust":"North Staffordshire Combined Healthcare NHS Trust","trust_id":218,"eu_staff_perc":0.8,"frontline_perc":0.8,"doctors_perc":4.6,"nurses_perc":0.2,"midwives_perc":0},{"id":6265,"lat":53.1053611,"lon":-2.0241342,"name":"One Recovery Leek","trust":"North_Staffordshire_Combined_Healthcare_NHS_Trust","clean_trust":"North Staffordshire Combined Healthcare NHS Trust","trust_id":218,"eu_staff_perc":0.8,"frontline_perc":0.8,"doctors_perc":4.6,"nurses_perc":0.2,"midwives_perc":0},{"id":6273,"lat":53.01562725,"lon":-2.26726434,"name":"Silverdale Medical Centre","trust":"North_Staffordshire_Combined_Healthcare_NHS_Trust","clean_trust":"North Staffordshire Combined Healthcare NHS Trust","trust_id":218,"eu_staff_perc":0.8,"frontline_perc":0.8,"doctors_perc":4.6,"nurses_perc":0.2,"midwives_perc":0},{"id":6241,"lat":53.03071746,"lon":-2.1712414,"name":"Broom Street Clinic","trust":"North_Staffordshire_Combined_Healthcare_NHS_Trust","clean_trust":"North Staffordshire Combined Healthcare NHS Trust","trust_id":218,"eu_staff_perc":0.8,"frontline_perc":0.8,"doctors_perc":4.6,"nurses_perc":0.2,"midwives_perc":0},{"id":6249,"lat":53.02783309,"lon":-2.17064629,"name":"Healthy Minds Stoke-on-Trent","trust":"North_Staffordshire_Combined_Healthcare_NHS_Trust","clean_trust":"North Staffordshire Combined Healthcare NHS Trust","trust_id":218,"eu_staff_perc":0.8,"frontline_perc":0.8,"doctors_perc":4.6,"nurses_perc":0.2,"midwives_perc":0},{"id":6258,"lat":53.00834541,"lon":-2.20414857,"name":"Medical Institute","trust":"North_Staffordshire_Combined_Healthcare_NHS_Trust","clean_trust":"North Staffordshire Combined Healthcare NHS Trust","trust_id":218,"eu_staff_perc":0.8,"frontline_perc":0.8,"doctors_perc":4.6,"nurses_perc":0.2,"midwives_perc":0},{"id":6266,"lat":53.01200096,"lon":-2.23038295,"name":"One Recovery Newcastle","trust":"North_Staffordshire_Combined_Healthcare_NHS_Trust","clean_trust":"North Staffordshire Combined Healthcare NHS Trust","trust_id":218,"eu_staff_perc":0.8,"frontline_perc":0.8,"doctors_perc":4.6,"nurses_perc":0.2,"midwives_perc":0},{"id":6274,"lat":53.00544108,"lon":-2.18832353,"name":"Stoke Health Centre","trust":"North_Staffordshire_Combined_Healthcare_NHS_Trust","clean_trust":"North Staffordshire Combined Healthcare NHS Trust","trust_id":218,"eu_staff_perc":0.8,"frontline_perc":0.8,"doctors_perc":4.6,"nurses_perc":0.2,"midwives_perc":0},{"id":6242,"lat":53.04554972,"lon":-2.19446498,"name":"Burslem Health Centre","trust":"North_Staffordshire_Combined_Healthcare_NHS_Trust","clean_trust":"North Staffordshire Combined Healthcare NHS Trust","trust_id":218,"eu_staff_perc":0.8,"frontline_perc":0.8,"doctors_perc":4.6,"nurses_perc":0.2,"midwives_perc":0},{"id":6250,"lat":52.99179042,"lon":-2.1677352,"name":"Heron House","trust":"North_Staffordshire_Combined_Healthcare_NHS_Trust","clean_trust":"North Staffordshire Combined Healthcare NHS Trust","trust_id":218,"eu_staff_perc":0.8,"frontline_perc":0.8,"doctors_perc":4.6,"nurses_perc":0.2,"midwives_perc":0},{"id":6259,"lat":52.80488969,"lon":-2.1186267,"name":"Mill Bank Surgery","trust":"North_Staffordshire_Combined_Healthcare_NHS_Trust","clean_trust":"North Staffordshire Combined Healthcare NHS Trust","trust_id":218,"eu_staff_perc":0.8,"frontline_perc":0.8,"doctors_perc":4.6,"nurses_perc":0.2,"midwives_perc":0},{"id":6267,"lat":52.81275294,"lon":-2.12112581,"name":"One Recovery Stafford","trust":"North_Staffordshire_Combined_Healthcare_NHS_Trust","clean_trust":"North Staffordshire Combined Healthcare NHS Trust","trust_id":218,"eu_staff_perc":0.8,"frontline_perc":0.8,"doctors_perc":4.6,"nurses_perc":0.2,"midwives_perc":0},{"id":6275,"lat":52.97956372,"lon":-2.13340323,"name":"Sutherland Centre","trust":"North_Staffordshire_Combined_Healthcare_NHS_Trust","clean_trust":"North Staffordshire Combined Healthcare NHS Trust","trust_id":218,"eu_staff_perc":0.8,"frontline_perc":0.8,"doctors_perc":4.6,"nurses_perc":0.2,"midwives_perc":0},{"id":6243,"lat":53.00230601,"lon":-2.19805525,"name":"Darwin Centre","trust":"North_Staffordshire_Combined_Healthcare_NHS_Trust","clean_trust":"North Staffordshire Combined Healthcare NHS Trust","trust_id":218,"eu_staff_perc":0.8,"frontline_perc":0.8,"doctors_perc":4.6,"nurses_perc":0.2,"midwives_perc":0},{"id":6251,"lat":52.96865424,"lon":-2.16629052,"name":"I.T. Department","trust":"North_Staffordshire_Combined_Healthcare_NHS_Trust","clean_trust":"North Staffordshire Combined Healthcare NHS Trust","trust_id":218,"eu_staff_perc":0.8,"frontline_perc":0.8,"doctors_perc":4.6,"nurses_perc":0.2,"midwives_perc":0},{"id":6260,"lat":53.10672508,"lon":-2.01958694,"name":"Moorlands Medical Cenre","trust":"North_Staffordshire_Combined_Healthcare_NHS_Trust","clean_trust":"North Staffordshire Combined Healthcare NHS Trust","trust_id":218,"eu_staff_perc":0.8,"frontline_perc":0.8,"doctors_perc":4.6,"nurses_perc":0.2,"midwives_perc":0},{"id":6268,"lat":52.63622419,"lon":-1.69728975,"name":"One Recovery Tamworth","trust":"North_Staffordshire_Combined_Healthcare_NHS_Trust","clean_trust":"North Staffordshire Combined Healthcare NHS Trust","trust_id":218,"eu_staff_perc":0.8,"frontline_perc":0.8,"doctors_perc":4.6,"nurses_perc":0.2,"midwives_perc":0},{"id":6276,"lat":53.03633604,"lon":-2.14385374,"name":"The Surgery (Leek Road)","trust":"North_Staffordshire_Combined_Healthcare_NHS_Trust","clean_trust":"North Staffordshire Combined Healthcare NHS Trust","trust_id":218,"eu_staff_perc":0.8,"frontline_perc":0.8,"doctors_perc":4.6,"nurses_perc":0.2,"midwives_perc":0},{"id":6244,"lat":53.04393209,"lon":-2.25170362,"name":"Dragon Square Community Unit","trust":"North_Staffordshire_Combined_Healthcare_NHS_Trust","clean_trust":"North Staffordshire Combined Healthcare NHS Trust","trust_id":218,"eu_staff_perc":0.8,"frontline_perc":0.8,"doctors_perc":4.6,"nurses_perc":0.2,"midwives_perc":0},{"id":6252,"lat":53.08736735,"lon":-2.23411518,"name":"Kidsgrove Health Centre","trust":"North_Staffordshire_Combined_Healthcare_NHS_Trust","clean_trust":"North Staffordshire Combined Healthcare NHS Trust","trust_id":218,"eu_staff_perc":0.8,"frontline_perc":0.8,"doctors_perc":4.6,"nurses_perc":0.2,"midwives_perc":0},{"id":6261,"lat":52.96837344,"lon":-2.16780818,"name":"North Staffordshire Combined Healthcare NHS Trust","trust":"North_Staffordshire_Combined_Healthcare_NHS_Trust","clean_trust":"North Staffordshire Combined Healthcare NHS Trust","trust_id":218,"eu_staff_perc":0.8,"frontline_perc":0.8,"doctors_perc":4.6,"nurses_perc":0.2,"midwives_perc":0},{"id":6269,"lat":53.02013102,"lon":-2.18148548,"name":"Parent & Baby Unit","trust":"North_Staffordshire_Combined_Healthcare_NHS_Trust","clean_trust":"North Staffordshire Combined Healthcare NHS Trust","trust_id":218,"eu_staff_perc":0.8,"frontline_perc":0.8,"doctors_perc":4.6,"nurses_perc":0.2,"midwives_perc":0},{"id":6277,"lat":53.05794834,"lon":-1.88244629,"name":"The Surgery (Waterfall Lane)","trust":"North_Staffordshire_Combined_Healthcare_NHS_Trust","clean_trust":"North Staffordshire Combined Healthcare NHS Trust","trust_id":218,"eu_staff_perc":0.8,"frontline_perc":0.8,"doctors_perc":4.6,"nurses_perc":0.2,"midwives_perc":0},{"id":6245,"lat":0,"lon":0,"name":"Eaton House Clinic","trust":"North_Staffordshire_Combined_Healthcare_NHS_Trust","clean_trust":"North Staffordshire Combined Healthcare NHS Trust","trust_id":218,"eu_staff_perc":0.8,"frontline_perc":0.8,"doctors_perc":4.6,"nurses_perc":0.2,"midwives_perc":0},{"id":6253,"lat":53.00067659,"lon":-2.2099087,"name":"Learning Disabilities Unit","trust":"North_Staffordshire_Combined_Healthcare_NHS_Trust","clean_trust":"North Staffordshire Combined Healthcare NHS Trust","trust_id":218,"eu_staff_perc":0.8,"frontline_perc":0.8,"doctors_perc":4.6,"nurses_perc":0.2,"midwives_perc":0},{"id":6262,"lat":53.01386712,"lon":-2.21799177,"name":"North Staffordshire Wellbeing","trust":"North_Staffordshire_Combined_Healthcare_NHS_Trust","clean_trust":"North Staffordshire Combined Healthcare NHS Trust","trust_id":218,"eu_staff_perc":0.8,"frontline_perc":0.8,"doctors_perc":4.6,"nurses_perc":0.2,"midwives_perc":0},{"id":6270,"lat":53.10725527,"lon":-2.0205133,"name":"Park Medical Centre","trust":"North_Staffordshire_Combined_Healthcare_NHS_Trust","clean_trust":"North Staffordshire Combined Healthcare NHS Trust","trust_id":218,"eu_staff_perc":0.8,"frontline_perc":0.8,"doctors_perc":4.6,"nurses_perc":0.2,"midwives_perc":0},{"id":6246,"lat":52.96865424,"lon":-2.16629052,"name":"Estates Department","trust":"North_Staffordshire_Combined_Healthcare_NHS_Trust","clean_trust":"North Staffordshire Combined Healthcare NHS Trust","trust_id":218,"eu_staff_perc":0.8,"frontline_perc":0.8,"doctors_perc":4.6,"nurses_perc":0.2,"midwives_perc":0},{"id":6254,"lat":53.10569139,"lon":-2.01934747,"name":"Leek Health Centre","trust":"North_Staffordshire_Combined_Healthcare_NHS_Trust","clean_trust":"North Staffordshire Combined Healthcare NHS Trust","trust_id":218,"eu_staff_perc":0.8,"frontline_perc":0.8,"doctors_perc":4.6,"nurses_perc":0.2,"midwives_perc":0},{"id":6255,"lat":53.10710178,"lon":-2.02408326,"name":"Leek Social Services Office","trust":"North_Staffordshire_Combined_Healthcare_NHS_Trust","clean_trust":"North Staffordshire Combined Healthcare NHS Trust","trust_id":218,"eu_staff_perc":0.8,"frontline_perc":0.8,"doctors_perc":4.6,"nurses_perc":0.2,"midwives_perc":0},{"id":6263,"lat":52.80464122,"lon":-1.63523063,"name":"One Recovery Burton-on-Trent","trust":"North_Staffordshire_Combined_Healthcare_NHS_Trust","clean_trust":"North Staffordshire Combined Healthcare NHS Trust","trust_id":218,"eu_staff_perc":0.8,"frontline_perc":0.8,"doctors_perc":4.6,"nurses_perc":0.2,"midwives_perc":0},{"id":6271,"lat":53.05950208,"lon":-2.21461146,"name":"Roundwell Place Clinic","trust":"North_Staffordshire_Combined_Healthcare_NHS_Trust","clean_trust":"North Staffordshire Combined Healthcare NHS Trust","trust_id":218,"eu_staff_perc":0.8,"frontline_perc":0.8,"doctors_perc":4.6,"nurses_perc":0.2,"midwives_perc":0},{"id":6239,"lat":53.00067659,"lon":-2.2099087,"name":"Harplands Hospital","trust":"North_Staffordshire_Combined_Healthcare_NHS_Trust","clean_trust":"North Staffordshire Combined Healthcare NHS Trust","trust_id":218,"eu_staff_perc":0.8,"frontline_perc":0.8,"doctors_perc":4.6,"nurses_perc":0.2,"midwives_perc":0},{"id":6247,"lat":53.06332496,"lon":-2.2081393,"name":"Greenfields Centre","trust":"North_Staffordshire_Combined_Healthcare_NHS_Trust","clean_trust":"North Staffordshire Combined Healthcare NHS Trust","trust_id":218,"eu_staff_perc":0.8,"frontline_perc":0.8,"doctors_perc":4.6,"nurses_perc":0.2,"midwives_perc":0},{"id":8954,"lat":54.92658898,"lon":-1.4472193,"name":"Bunny Hill Primary Care Centre","trust":"South_Tyneside_NHS_Foundation_Trust","clean_trust":"South Tyneside NHS Foundation Trust","trust_id":211,"eu_staff_perc":1,"frontline_perc":1.1,"doctors_perc":6.2,"nurses_perc":0.4,"midwives_perc":0},{"id":1025,"lat":53.54695369,"lon":-2.3895206,"name":"Lord Street And Grosvenor Childrens Centre","trust":"Bridgewater_Community_Healthcare_NHS_Foundation_Trust","clean_trust":"Bridgewater Community Healthcare NHS Foundation Trust","trust_id":213,"eu_staff_perc":1,"frontline_perc":1.1,"doctors_perc":1.1,"nurses_perc":1.1,"midwives_perc":0},{"id":1033,"lat":53.37298357,"lon":-2.71900784,"name":"Mill Brow Clinic","trust":"Bridgewater_Community_Healthcare_NHS_Foundation_Trust","clean_trust":"Bridgewater Community Healthcare NHS Foundation Trust","trust_id":213,"eu_staff_perc":1,"frontline_perc":1.1,"doctors_perc":1.1,"nurses_perc":1.1,"midwives_perc":0},{"id":1041,"lat":53.53972616,"lon":-2.70647467,"name":"Orrell Clinic","trust":"Bridgewater_Community_Healthcare_NHS_Foundation_Trust","clean_trust":"Bridgewater Community Healthcare NHS Foundation Trust","trust_id":213,"eu_staff_perc":1,"frontline_perc":1.1,"doctors_perc":1.1,"nurses_perc":1.1,"midwives_perc":0},{"id":10664,"lat":53.34097723,"lon":-3.00367851,"name":"The Spital Surgery","trust":"Wirral_Community_NHS_Foundation_Trust","clean_trust":"Wirral Community NHS Foundation Trust","trust_id":216,"eu_staff_perc":1,"frontline_perc":1,"doctors_perc":7.1,"nurses_perc":0.7,"midwives_perc":0},{"id":985,"lat":53.41251688,"lon":-2.16595839,"name":"Dental Dept (Kingsgate)","trust":"Bridgewater_Community_Healthcare_NHS_Foundation_Trust","clean_trust":"Bridgewater Community Healthcare NHS Foundation Trust","trust_id":213,"eu_staff_perc":1,"frontline_perc":1.1,"doctors_perc":1.1,"nurses_perc":1.1,"midwives_perc":0},{"id":1049,"lat":53.49577555,"lon":-2.5463524,"name":"Richmond House","trust":"Bridgewater_Community_Healthcare_NHS_Foundation_Trust","clean_trust":"Bridgewater Community Healthcare NHS Foundation Trust","trust_id":213,"eu_staff_perc":1,"frontline_perc":1.1,"doctors_perc":1.1,"nurses_perc":1.1,"midwives_perc":0},{"id":993,"lat":53.53778556,"lon":-2.09509489,"name":"Glodwick Health Centre","trust":"Bridgewater_Community_Healthcare_NHS_Foundation_Trust","clean_trust":"Bridgewater Community Healthcare NHS Foundation Trust","trust_id":213,"eu_staff_perc":1,"frontline_perc":1.1,"doctors_perc":1.1,"nurses_perc":1.1,"midwives_perc":0},{"id":1057,"lat":53.58491706,"lon":-2.66239159,"name":"Standish Health Centre","trust":"Bridgewater_Community_Healthcare_NHS_Foundation_Trust","clean_trust":"Bridgewater Community Healthcare NHS Foundation Trust","trust_id":213,"eu_staff_perc":1,"frontline_perc":1.1,"doctors_perc":1.1,"nurses_perc":1.1,"midwives_perc":0},{"id":1001,"lat":53.36215795,"lon":-2.7357053,"name":"Health Care Resource Centre","trust":"Bridgewater_Community_Healthcare_NHS_Foundation_Trust","clean_trust":"Bridgewater Community Healthcare NHS Foundation Trust","trust_id":213,"eu_staff_perc":1,"frontline_perc":1.1,"doctors_perc":1.1,"nurses_perc":1.1,"midwives_perc":0},{"id":1065,"lat":53.38569673,"lon":-2.59786433,"name":"Warrington Community Drug Team","trust":"Bridgewater_Community_Healthcare_NHS_Foundation_Trust","clean_trust":"Bridgewater Community Healthcare NHS Foundation Trust","trust_id":213,"eu_staff_perc":1,"frontline_perc":1.1,"doctors_perc":1.1,"nurses_perc":1.1,"midwives_perc":0},